Name,City,Comments,Country,Date Posted,Duration,Lat,Long,Shape,SS Status,Unique ID
1000-laurel-Sleigh,laurel,The sleigh was roof high and I observed it very closely for at least 3 to 5 minutes,us,10/02/2019,180,39.09917,-76.84861,Sleigh,Closed,SS-7014
1001-federal way-cylinder,federal way,Cylindrical or cigar-shaped bright bronze object with bright orange appendage underneath stationary at 80 degrees in SE-SSE clear b,us,10/02/2019,30,47.32250,-122.31139,cylinder,Active,SS-7355
1002-gresham-changing,gresham,watched a black object float across the sky level while appearing to rotate on 3 axis seperate into 2 objects reconnect and then slow,us,10/02/2019,1500,45.49833,-122.43028,changing,Active,SS-7356
1003-center moriches-light,center moriches,4 or 5 lights on an angle,us,10/02/2019,7,40.80028,-72.79028,light,Closed,SS-7353
1004-bryan-triangle,bryan,Moving northwest to southeast silently moving triangle shape. Blocked stars from view as if it were a triangular shadow moving across,us,10/02/2019,15,30.67417,-96.36972,triangle,Active,SS-7354
1005-vancouver-diamond,vancouver,I thought it was a star,us,10/02/2019,60,45.63889,-122.66028,diamond,Active,SS-7351
1006-mukilteo-Sleigh,mukilteo,The sleigh was roof high and I observed it very closely for at least 3 to 5 minutes,us,10/02/2019,3,47.94472,-122.30333,Sleigh,Closed,SS-7352
1007-santa rosa-Sleigh,santa rosa,The sleigh was roof high and I observed it very closely for at least 3 to 5 minutes,us,10/02/2019,7,38.44056,-122.71333,Sleigh,Active,SS-7349
1008-daytontrotwoodwest carrollton-triangle,daytontrotwoodwest carrollton,While out driving along a country road my brothersister in lawand I observed five triangles flying from the west heading north.  One,us,10/02/2019,1200,0.00000,0.00000,triangle,Active,SS-7350
1009-nampa-Sleigh,nampa,Witnessed white contrail that appeared to go from level flight to straight down.  Contrail actually indicated 90 degree turn S to W to,us,10/02/2019,45,43.54083,-116.56250,Sleigh,Pending,SS-7347
100-walla walla-triangle,walla walla,The object moved up down hovered then left with extreme speed on a huge trajectory up into space.  We followed it on a surveyors tr,us,11/01/2018,1200,46.06472,-118.34194,triangle,Active,SS-8233
1010-pomona-light,pomona,object was heading north toward mt.baldyreversed course(on a dime)headed south traversed the sky.about a fist away from moon it zig za,us,10/02/2019,120,34.05528,-117.75139,light,Active,SS-7348
1011-rushville-fireball,rushville,orange light moving across sky and stops and exlpodes into a fireball and disappears,us,10/02/2019,20,40.12111,-90.56306,fireball,Active,SS-7345
1012-rushville-light,rushville,4 orange lights luminating in sky and disappearing,us,10/02/2019,2700,40.12111,-90.56306,light,Pending,SS-7346
1013-nampa-triangle,nampa,I witnessed a very large triangle moveing very slow heading northeast torward northern oregon. It had a white blinking light on each co,us,10/02/2019,180,43.54083,-116.56250,triangle,Pending,SS-7343
1014-cedar rapids-Sleigh,cedar rapids,Looking west at about 20-30 degrees up from the horizon saw strange light that appeared to be moving very slowly or hovering. Lights,us,10/02/2019,900,42.00833,-91.64389,Sleigh,Active,SS-7344
1015-elgin-disk,elgin,A ROUND DISK TYPE OBJECT WHITE(LIGHT) IN COLOR WITH WHITE &amp; ORANGE LIGHTS SURRONDING PERIMETER ABOUT 100 METERS ABOVE AND HOVERING.,us,10/02/2019,300,30.34944,-97.37000,disk,Active,SS-7342
1016-menomonie-Sleigh,menomonie,The sleigh was roof high and I observed it very closely for at least 3 to 5 minutes,us,10/02/2019,0,44.87556,-91.91917,Sleigh,Pending,SS-7341
1017-todos santos bcs (mexico)-sphere,todos santos bcs (mexico),4:00 A.M. a large white light was seen above the tallest mountain east of Todos Santos at Lat.23.30 (Tropic of Cancer) and Lon. 110.W,us,10/02/2019,80,23.44636,-110.22651,sphere,Pending,SS-7340
1018-western north carolina mountains-fireball,western north carolina mountains,I saw a brilliant flash in the southern sky going from East to West.,us,10/02/2019,5,35.75957,-79.01930,fireball,Closed,SS-7339
1019-honolulu-Sleigh,honolulu,The sleigh was roof high and I observed it very closely for at least 3 to 5 minutes,us,10/02/2019,300,21.30694,-157.85833,Sleigh,Active,SS-7338
101-ponce (puerto rico) ?-other,ponce (puerto rico) ?,Boiling back lighted clouds obscurred full moon. Then three light balls appeared less then 30 feet from me appearing as multishaft luc,us,11/01/2018,900,18.01108,-66.61406,other,Active,SS-8238
1020-boring-Sleigh,boring,The sleigh was roof high and I observed it very closely for at least 3 to 5 minutes,us,10/02/2019,180,45.43000,-122.37361,Sleigh,Active,SS-7337
10212-gb-triangle,burgess hill (uk/england),My husband was in the garden when he came rushing inside and said he had to use the phone to report something he had seen. he has an in,gb,03/11/2003,120,50.96667,-0.13333,triangle,Active,SS-8545
1021-anacoco-disk,anacoco,My wife called me to the living room to see an ornange pulsating light. I watched it for a bit and it shot straight up almost out of s,us,10/02/2019,2400,31.25194,-93.34111,disk,Active,SS-7336
10228-gb-sleigh,burgess hill (uk/england),Five circles of light undulating in the sky like a sidewinder snake,gb,03/11/2003,600,50.96667,-0.13333,sleigh,Active,SS-8540
1022-canby-Sleigh,canby,The sleigh was roof high and I observed it very closely for at least 3 to 5 minutes,us,10/02/2019,300,45.26306,-122.69139,Sleigh,Pending,SS-7335
1023-cheyenne-Sleigh,cheyenne,Seen an oject west of town at hotel it refected city lights with brown golden color moving west fast with no lights no sound and no vis,us,10/02/2019,3,41.14000,-104.81972,Sleigh,Active,SS-7334
1024-hazelwood-triangle,hazelwood,More or less triangular shaped object. Moving east to west turned wo move west to east. Slow moving. Appeared small but it was hard t,us,10/02/2019,40,38.77139,-90.37083,triangle,Closed,SS-7333
1025-phoenix-oval,phoenix,It changed colors hovered for about 10 min. then faded to a light fuzz and slowly jetted away. This repeated the exact same routine i,us,10/02/2019,3600,33.44833,-112.07333,oval,Pending,SS-7332
1026-council bluffs-flash,council bluffs,While driving home from school in Council Bluffs down Interstate 80 I observed a bright flash that streaked across the sky a great dist,us,10/02/2019,2,41.26194,-95.86083,flash,Active,SS-7331
1027-dandridge-triangle,dandridge,Watched red light grow large then disappear when I was getting into my car. Reappeared in front of me while driving I pulled over and,us,10/02/2019,600,36.01528,-83.41500,triangle,Active,SS-7330
1028-virginia beach-fireball,virginia beach,a ball of light shot over my head.,us,10/02/2019,2,36.85278,-75.97833,fireball,Active,SS-7329
1029-west manchester-changing,west manchester,My husband and I saw an object hovering in the sky north of our home at 4:15 a.m. E.S.T. September 181997 Thursday. It looked like a,us,10/02/2019,6300,38.68806,-83.60944,changing,Pending,SS-7328
102-superior-Sleigh,superior,The sleigh was roof high and I observed it very closely for at least 3 to 5 minutes,us,11/01/2018,120,46.72083,-92.10389,Sleigh,Active,SS-8231
1030-new york city (brooklyn)-Sleigh,new york city (brooklyn),I dreamed I was being whisked upward at a tremendous speed. I was frightened. In the morning I found an outline of an oval burned o,us,10/02/2019,0,40.71417,-74.00639,Sleigh,Closed,SS-7327
1031-kill devil hills-sleigh,kill devil hills,5-6 pale orange lights brightness of major Orion constellation stars  viewed at 33 dgr from horizen moving due south together for 45 dg,us,10/02/2019,10,36.03056,-75.67639,sleigh,Active,SS-7326
10327-gb-other,bonnybridge (uk/scotland),10/09/03- 20:23gmt bonnybridge Scotland- dome shape light which disapeared quickly,gb,09/12/2003,180,56.00000,-3.88333,other,Closed,SS-8543
1032-seattle-Sleigh,seattle,Watched a very bright star - planet like object for one to two minutes which remained stationary. This suddenly totally disappeared.,us,10/02/2019,120,47.60639,-122.33083,Sleigh,Active,SS-7325
1033-philadelphia-Sleigh,philadelphia,The sleigh was roof high and I observed it very closely for at least 3 to 5 minutes,us,10/02/2019,0,39.95222,-75.16417,Sleigh,Closed,SS-7324
10343-gb-disk,manchester (uk/england),It lasted 2 mins disc shaped objects flashing lights dissapeared.,gb,09/12/2003,120,53.50000,-2.21667,disk,Closed,SS-8538
10344-gb-light,fife (uk/scotland),My husband and I were looking out at the sky as it was a very clear night.I spotted a light that looked like a star movingI pointed th,gb,09/12/2003,300,56.25000,-3.16667,light,Closed,SS-8541
1034-snohomish-Sleigh,snohomish,A vehicle of some sort appeared to be over the Snohomish/Arlington area that pulsed between a red and white light. There were also one,us,10/02/2019,180,47.91306,-122.09694,Sleigh,Pending,SS-7323
1035-seattle-Sleigh,seattle,Three glowing triangular objects moved from east to west at a high rate of speed silently and in perfect sleigh.,us,10/02/2019,15,47.60639,-122.33083,Sleigh,Pending,SS-7322
1036-cleveland-Sleigh,cleveland,The sleigh was roof high and I observed it very closely for at least 3 to 5 minutes,us,10/02/2019,900,30.34111,-95.08528,Sleigh,Closed,SS-7321
1037-tampa-flash,tampa,HI PETER306AMEST DOG STARTED BARKING WENT TO FRONT DOOR APPROX 40DEG ABOVE EST HORIZ FAST MOVING LIGHT FLASHING(WHITE)TAKE CARE GOOD H,us,10/02/2019,15,27.94722,-82.45861,flash,Pending,SS-7320
10389-gb-sphere,leicester (uk/england),its the bestest sighting ive seen yet,gb,09/01/2004,300,52.66491,-1.03489,sphere,Pending,SS-8539
1038-santa barbara-disk,santa barbara,Wife saw it first looking north altitude approx. 1000-2500 feet then lost it in marine cover. Hovered slight climb hover slight cl,us,10/02/2019,1800,34.42083,-119.69722,disk,Pending,SS-7319
1039-santa barbara-other,santa barbara,I observed an object rising slowly up from about 2000 ft. until it disappeared into the low clouds.  It was star shaped and rotating.,us,10/02/2019,480,34.42083,-119.69722,other,Closed,SS-7318
103-rose-triangle,rose,Black Triangle over apple trees.,us,11/01/2018,60,43.15361,-76.87889,triangle,Pending,SS-8236
1040-bothell-light,bothell,Observed through binoculars a bright light moving from north to south at a high rate of speed.,us,10/02/2019,10,47.76250,-122.20417,light,Active,SS-7317
1041-philadelphia-Sleigh,philadelphia,Three circular craft in a triangle sleigh passed in a northerly direction,us,10/02/2019,120,39.95222,-75.16417,Sleigh,Closed,SS-7316
1042-tolono-Sleigh,tolono,The sleigh was roof high and I observed it very closely for at least 3 to 5 minutes,us,10/02/2019,4,39.98611,-88.25889,Sleigh,Active,SS-7315
1043-mission viejo-light,mission viejo,A red light about the size and shape of a star moving at about the speed of a shooting star but with no tail. As I watched it it slowed,us,10/02/2019,20,33.60000,-117.67111,light,Active,SS-7314
1044-i-80 (eastbound  m.m. 48)-Sleigh,i-80 (eastbound  m.m. 48),The sleigh was roof high and I observed it very closely for at least 3 to 5 minutes,us,10/02/2019,1200,40.74426,-112.63576,Sleigh,Active,SS-7313
10459-gb-sphere,london (uk/england),We were on a main road in London called Finchley Road there were plenty more people driving who could have seen this object. It appear,gb,09/01/2004,30,51.51412,-0.09369,sphere,Closed,SS-8536
1045-highland park-triangle,highland park,A trianular object observed hovering but wobbling and then going up at a high rate of speed.,us,10/02/2019,300,34.11194,-118.19806,triangle,Active,SS-7312
1046-hattiesburg-sphere,hattiesburg,I was watching the sky when over head I saw a Black spherical object pass over.,us,10/02/2019,10,31.32694,-89.29028,sphere,Pending,SS-7311
1047-barrington-Sleigh,barrington,The sleigh was roof high and I observed it very closely for at least 3 to 5 minutes,us,10/02/2019,15,43.22278,-71.04750,Sleigh,Active,SS-7310
1048-mesa-light,mesa,I was sitting in my back yard looking at all the airplanes when I looked south. I saw a bright light that was not seeming to move. Its,us,10/02/2019,45,33.42222,-111.82194,light,Pending,SS-7309
1049-denver-light,denver,Star like light moved about 10 moons disappeared reappeared and moved 10 more moons then disappeared again.,us,10/02/2019,40,39.73917,-104.98417,light,Closed,SS-7308
104-kyle-oval,kyle,Large lemon shaped object crossed highway 35 .Car died then object exploded about 1\2 mile away extremely bright white light no noise,us,11/01/2018,180,29.98889,-97.87694,oval,Active,SS-8234
1050-hamilton-disk,hamilton,Husband saw 1st. It was sitting still directly west of Hamilton over Bitterroot Range. As soon as he pointed it out to a friend it be,us,10/02/2019,300,46.24694,-114.15944,disk,Active,SS-7307
10513-gb-circle,chingford (london) (uk/england),Huge craft caught on CCTV,gb,09/01/2004,1800,51.62853,0.00338,circle,Pending,SS-8537
1051-indianapolis-Sleigh,indianapolis,The sleigh was roof high and I observed it very closely for at least 3 to 5 minutes,us,10/02/2019,10,39.76833,-86.15806,Sleigh,Active,SS-7306
1052-spokane-fireball,spokane,orange fireball w/short tail,us,10/02/2019,420,47.65889,-117.42500,fireball,Pending,SS-7305
10533-gb-other,glasgow (uk/scotland),The time was 7:00AM UK time of the 1 January 2004. The sky was clear and crisp and it was a beautiful morning. I was walking my dogs in,gb,03/02/2004,2,55.83333,-4.25000,other,Active,SS-8534
1053-post falls-fireball,post falls,Driving eastbound I-90 near ID/WA stateline. Observed fireball with other cars stopped by side of highway for approx. 20 minutes.,us,10/02/2019,1200,47.71806,-116.95056,fireball,Closed,SS-7304
1054-everett-changing,everett,I watched a cylinder shaped object head west then changed form to a boomerang transparent like state and then it traveled south,us,10/02/2019,30,47.97917,-122.20083,changing,Closed,SS-7303
1055-vancouver-sphere,vancouver,2 floating white-ish orbs and 1 red spinning cube.,us,10/02/2019,20,45.63889,-122.66028,sphere,Closed,SS-7302
10568-gb-cigar,newcastle upon tyne (uk/england),As me and two of my friends were standing on the bridge we were looking up towards the sky when all of a sudden long shaped craft apper,gb,03/02/2004,25,54.98806,-1.61944,cigar,Pending,SS-8535
1056-galva/victoria/oak run-changing,galva/victoria/oak run,Three balls of light come out of a cornfield aprox.  40 yards above the ground and about 20 yards from the road.  Multiple sightings wi,us,10/02/2019,7200,40.96337,-90.14512,changing,Closed,SS-7301
10578-gb-Sleigh,chelmsford (uk/england),5 craft hovered in triangle sleigh and interupted all radio signals and vanished.,gb,03/02/2004,600,51.73333,0.48333,Sleigh,Active,SS-8532
1057-central lake-cylinder,central lake,Saw shiny metallic object in NW sky at sunset high on horizon. Appeared to be tilted at 45 degree angle hovering high above horizon.,us,10/02/2019,2400,45.07000,-85.26444,cylinder,Active,SS-7300
1058-new berlin-Sleigh,new berlin,The sleigh was roof high and I observed it very closely for at least 3 to 5 minutes,us,10/02/2019,60,42.97639,-88.10833,Sleigh,Pending,SS-7299
1059-manassas-Sleigh,manassas,The sleigh was roof high and I observed it very closely for at least 3 to 5 minutes,us,10/02/2019,40,38.75083,-77.47556,Sleigh,Pending,SS-7298
105-monterey bay/fort ord rifle range-disk,monterey bay/fort ord rifle range,Just before sun down (sun still shinning) hovering over the bay it was metallic in colorvery shiney.  It later moved slowly over the r,us,11/01/2018,1500,36.77826,-119.41793,disk,Pending,SS-8228
1060-wharton-triangle,wharton,while driving home from a football game my family and i saw 3 lights on the horizon,us,10/02/2019,180,40.86139,-83.46167,triangle,Active,SS-7297
1061-millsboro-egg,millsboro,Followed vehicle and occupants from Home to destination approximately 30 to 40minutes away. Stopped when vehicle stopped and appeared t,us,10/02/2019,2700,38.59139,-75.29167,egg,Active,SS-7296
1062-victor/teton mountain range-sleigh,victor/teton mountain range,Saw two very bright white lights to the east accompanied by several other dimmer white lights.  25 minutes of unusual movement individ,us,10/02/2019,1500,0.00000,0.00000,sleigh,Active,SS-7295
1063-hailey-Sleigh,hailey,The sleigh was roof high and I observed it very closely for at least 3 to 5 minutes,us,10/02/2019,0,43.51972,-114.31444,Sleigh,Active,SS-7294
1064-chico-other,chico,small silver object low flying in very strait line emitting what looked to be a thick bright billowy contrail the shape and length of,us,10/02/2019,300,39.72861,-121.83639,other,Active,SS-7293
1065-troy-triangle,troy,Very very large triangular object outlined with lights appearing from the west stopping briefly then disappearing in the east at a ve,us,10/02/2019,180,42.60556,-83.15000,triangle,Pending,SS-7292
10666-gb-cigar,blackburn (uk/england),Cigar/Rod shaped object rotating silently in the sky,gb,03/02/2004,600,55.86667,-3.63333,cigar,Active,SS-8533
1066-lower lake-triangle,lower lake,At 10:00pm our dogs and the neiborhood dogs started to bark.  I went outside to check why they were barking.  I looked around and saw i,us,10/02/2019,3600,38.91056,-122.60917,triangle,Closed,SS-7291
10672-gb-disk,paisley (uk/scotland),Several nights in a row unsual hovering lights in the sky flashing red white blue flashing on a wide object in the sky.,gb,03/02/2004,0,55.83333,-4.43333,disk,Active,SS-8530
10678-gb-diamond,nottingham (uk/england),it was getting closer then it quickly turned,gb,03/02/2004,1320,52.96667,-1.16667,diamond,Pending,SS-8531
1067-wilberfoss york (uk/england)-light,wilberfoss york (uk/england),Blue/white fanning light which closed to a point and gradually faded to ground level,us,10/02/2019,120,53.95105,-0.88472,light,Pending,SS-7290
1068-everett-light,everett,I watched a streak of light move in a southerly direction heading downward eventually disappearing behind the Olympic Mountains.,us,10/02/2019,300,47.97917,-122.20083,light,Active,SS-7289
10698-gb-changing,blackpool (uk/england),No lights wings. Double balloon shape rolling slowly across late afternoon sky.,gb,03/02/2004,600,53.81667,-3.05000,changing,Active,SS-8528
1069-ewen-fireball,ewen,Greenish blue fireball which appeared to be quite large in size.  Arced toward earth in a west to east direction but north of Ewen MI.,us,10/02/2019,1,46.53528,-89.28111,fireball,Active,SS-7288
106-fort lawn-oval,fort lawn,When I was 6 or 7 years old my sister and I were waiting early one morning to catch the school bus.  Across from our stop there was no,us,11/01/2018,1800,34.70209,-80.89480,oval,Pending,SS-8232
1070-nashville-Sleigh,nashville,The sleigh was roof high and I observed it very closely for at least 3 to 5 minutes,us,10/02/2019,60,36.16583,-86.78444,Sleigh,Pending,SS-7287
1071-riverside-other,riverside,two objects came from east to west then broke apart soon they came together again but now there were three they zigzagged between eacho,us,10/02/2019,600,33.95333,-117.39528,other,Pending,SS-7286
1072-duanesburg (mohawk valley)-light,duanesburg (mohawk valley),We could not identify shape since it was night.  The lights were identifiable.  Not as an airplane weve seen those often around here,us,10/02/2019,600,42.76194,-74.13417,light,Pending,SS-7285
1073-las vegas-disk,las vegas,(Peter: we discussed this over the phone with you last Saturday). My husband and I were outside in our spa in South Las Vegas. At 11:08,us,10/02/2019,240,36.17500,-115.13639,disk,Pending,SS-7284
1074-las vegas-oval,las vegas,Location:South Las Vegas Time/Date 9/25/99 at 11:08 pm Sighting:5 round objects (about 1/2 size of the full moon)appearing one at a tim,us,10/02/2019,420,36.17500,-115.13639,oval,Active,SS-7283
1075-lake oswego-sleigh,lake oswego,As reported directly to Peter Davenport by phone 9-25-99 23:25pm-------I went outside with binoculars to do a sky watch and was lookin,us,10/02/2019,240,45.42083,-122.66944,sleigh,Pending,SS-7282
1076-la grande-fireball,la grande,As I left my house I noticed to the northeast a fireball descending to the horizon behind the mountains surrounding our valley. I orig,us,10/02/2019,2,45.32472,-118.08667,fireball,Pending,SS-7281
1077-bellevue-triangle,bellevue,The object was black triangular and had some protrusions on the back (fat end of the triangle) that may have been tail fins like on a,us,10/02/2019,10,47.61056,-122.19944,triangle,Active,SS-7280
1078-calumet city (just south of chicagoill) ill-Sleigh,calumet city (just south of chicagoill) ill,The sleigh was roof high and I observed it very closely for at least 3 to 5 minutes,us,10/02/2019,2,41.61559,-87.52949,Sleigh,Active,SS-7279
1079-cape kennedy (@ imax theatre 1)-other,cape kennedy (@ imax theatre 1),During the film  Mission to Mir  there appears to be a narrow elongated football shaped light which crosses a black sky from left to,us,10/02/2019,15,28.38833,-80.60361,other,Closed,SS-7278
107-woodberry forest preparatory school va-light,woodberry forest preparatory school va,Seen out window:  Silent light 6-8 inches in diameter at arms length moved across sky illuminating winter tree leaves in front of i,us,11/01/2018,3,37.43157,-78.65689,light,Active,SS-8226
1080-canby-Sleigh,canby,Triangular sleigh pinpoints of white light sighted in the western sky.,us,10/02/2019,180,45.26306,-122.69139,Sleigh,Closed,SS-7277
1081-encino-light,encino,Saw a motionless light floating in the sky.  It flashed off and on at 1/2 second intervals then disapeared. From - Thu Sep 30 23:30:13,us,10/02/2019,120,34.15917,-118.50028,light,Active,SS-7276
1082-seaview (port elizabeth  eastern cape) (south africa)-other,seaview (port elizabeth  eastern cape) (south africa),Saw 2 lights like car headlights about 200meters in the sky just hovering a red light on one side of wing and a green light on the,us,10/02/2019,600,0.00000,0.00000,other,Active,SS-7275
1083-lubbock-other,lubbock,Meteor looking object very bright. Visible only 2 seconds after which it vanished. Suspected meteor however its trajectory was North,us,10/02/2019,2,33.57778,-101.85472,other,Active,SS-7274
10846-gb-triangle,manchester (uk/england),unknown flying object saw by myself and 2 friends it fell from the sky with lights flickering green triangle shaped,gb,11/02/2004,180,53.50000,-2.21667,triangle,Pending,SS-8529
1084-olathe-sphere,olathe,Traveling W to pick up son from school.  Saw extraordinarily bright orb slowly traveling N in straight line. Size was about diameter of,us,10/02/2019,60,38.88139,-94.81889,sphere,Active,SS-7273
1085-nashville-fireball,nashville,fiery object looking like craft in movie it came from outer space or comet-like with fiery tail observed traveling in nw direction fr,us,10/02/2019,300,36.16583,-86.78444,fireball,Active,SS-7272
1086-lawrence-triangle,lawrence,Pulled out of Checkers parking lot (grocery store)onto 23rd St. Driving East until I came onto 23rd &amp; Ohio St. Present with my wife,us,10/02/2019,180,38.97167,-95.23500,triangle,Pending,SS-7271
1087-overland park-fireball,overland park,Green fireball with trail headed N-NW in Eastern KS - arching downward - resembled size and speed of a single discharge from a roman ca,us,10/02/2019,4,38.98222,-94.67056,fireball,Active,SS-7270
1088-morrowville-sphere,morrowville,Fast noiseless highly reflective object seen,us,10/02/2019,20,39.84444,-97.17139,sphere,Pending,SS-7268
1089-mount vernon-disk,mount vernon,A disc shaped object glowing a dull red fading to magenta moving at extreeme velocity moving from north-northeast to the southwest over,us,10/02/2019,11,48.42139,-122.33278,disk,Active,SS-7269
108-los angeles (over i-10 on most rural bayou stretch)-Sleigh,los angeles (over i-10 on most rural bayou stretch),Metallic Sleigh seen hovering silently directly over eastbound lanes.Light underneath shined UP onto craft-was being moved by humandoid s,us,11/01/2018,120,34.05222,-118.24278,Sleigh,Active,SS-8230
1090-san jose-other,san jose,I saw a strangely burning object about 10x as large as a flair. It wobbled and an angular shape could be seen within it.   sighting,us,10/02/2019,2,37.33944,-121.89389,other,Active,SS-7266
1091-salem-Sleigh,salem,The sleigh was roof high and I observed it very closely for at least 3 to 5 minutes,us,10/02/2019,2100,44.94306,-123.03389,Sleigh,Closed,SS-7267
1092-tonasket (20 miles east of)-light,tonasket (20 miles east of),revolving multi-colored lights,us,10/02/2019,1800,48.70528,-119.43833,light,Active,SS-7264
10937-gb-light,hastings (uk/england),slow moving bright ball of light like a white  flair,gb,11/02/2004,5,50.85000,0.60000,light,Active,SS-8526
1093-hartsdale/white plains-triangle,hartsdale/white plains,Observed at altitude of approximately 300 feet based on ceiling (5000) and aircraft approaching local airport (White Plains Airport).,us,10/02/2019,420,41.04981,-73.77314,triangle,Pending,SS-7265
1094-red rock canyon-Sleigh,red rock canyon,I took several pictures in Red Rock Canyon near Las Vegas on the fourth of Sept.  I had them developed the other day and in one of the,us,10/02/2019,2,36.16358,-115.50529,Sleigh,Pending,SS-7262
1095-nashville-light,nashville,I had walked out back and looked up at the sky and a golden light was moving slowly across the sky.  There were no flashing lights so I,us,10/02/2019,6,36.16583,-86.78444,light,Pending,SS-7263
1096-tonasket (20 miles east of)-light,tonasket (20 miles east of),varying speed pulsating light very bright to very dim,us,10/02/2019,1200,48.70528,-119.43833,light,Closed,SS-7260
1097-pedasi (panama)-light,pedasi (panama),We were standing on the beach at Pedasi (on the Azuero Penninsula) waiting for our boatman to bring the boat from its mooring to the be,us,10/02/2019,1200,7.55000,-80.01667,light,Active,SS-7261
10983-gb-Sleigh,london (uk/england),18:25 on 11/11/04 several light sleighs seen circling sky underneath clouds.,gb,12/03/2004,0,51.51412,-0.09369,Sleigh,Pending,SS-8527
1098-durham-rectangle,durham,We saw a white rectangular-shaped object very high in the eastern sky moving very slowly.,us,10/02/2019,10,43.13389,-70.92694,rectangle,Active,SS-7258
10990-gb-diamond,wiltshire (uk/england),shining diamond object above my friends heads(smaller than football ball). I had make three picture with 5.2 MP camra object is moving,gb,12/03/2004,0,51.25000,-1.91667,diamond,Closed,SS-8523
1099-zumbrota-Sleigh,zumbrota,The sleigh was roof high and I observed it very closely for at least 3 to 5 minutes,us,10/02/2019,4,44.29417,-92.66889,Sleigh,Active,SS-7259
109-anderson-other,anderson,All I saw was a blue-green light flash from one part of the sky to the other in a north/south direction. this flash started in the atmo,us,11/01/2018,5,40.44833,-122.29667,other,Closed,SS-8224
10-bar harbor (bar island crossover)-sphere,bar harbor (bar island crossover),My friend Steven and I were crossing over to Bar Island at low tide when we witnesses a green spherical object crossing the sky at a gr,us,11/01/2018,30,44.38750,-68.20444,sphere,Pending,SS-8327
1100-wiley-Sleigh,wiley,Three lights moving in sleigh.,us,10/02/2019,0,0.00000,0.00000,Sleigh,Active,SS-7256
1101-brule-Sleigh,brule,Triangular sleigh of three lights moving across the sky.,us,10/02/2019,600,46.55306,-91.57639,Sleigh,Active,SS-7257
1102-salem-other,salem,large greenish white umbrella shaped object coming in fast left ionized trail.,us,10/02/2019,3,44.94306,-123.03389,other,Pending,SS-7254
1103-witchita falls/ft worth (between)-fireball,witchita falls/ft worth (between),an orange light observed going from the N.W to the S.E on 09/07/99 lower tx panhandle,us,10/02/2019,120,33.90091,-98.48074,fireball,Active,SS-7255
1104-madison-light,madison,saw red light over lake. dived into two one changed color revoled around each other. merged togeter shot stight up.,us,10/02/2019,300,43.07306,-89.40111,light,Active,SS-7252
11055-gb-Sleigh,thankerton (uk/scotland),Sleigh Sighting,gb,12/03/2004,120,55.61667,-3.61667,Sleigh,Closed,SS-8525
1105-charlotte cty to sarasota on hwy. 75-light,charlotte cty to sarasota on hwy. 75,I saw a white clow it looked like a jetliner crashing.  I dont believe in spacecrafts but I thought maybe I should.  Manatee and Hil,us,10/02/2019,60,27.66483,-81.51575,light,Pending,SS-7253
1106-manasota key-fireball,manasota key,It looked like six Jumbo jets flying together inunison but they were not aircrafts.  They were too fast he said.  They looked like,us,10/02/2019,60,26.92500,-82.35222,fireball,Pending,SS-7251
11070-gb-light,london (heathrow cranford) (uk/england),Well i saw three lights above the clouds the clouds were very scarce and scattered above you can see the dark sky and the stars.,gb,12/03/2004,600,51.51412,-0.09369,light,Active,SS-8521
1108-lake oswego-Sleigh,lake oswego,While listening to Peter Davenport on Art Bells Show 9-7-99 about the Sleigh reports out of Oregon I decided to go outside during the br,us,10/02/2019,300,45.42083,-122.66944,Sleigh,Pending,SS-7249
11093-gb-Sleigh,dunstable (uk/england),Sleigh dancing,gb,12/03/2004,600,51.88333,-0.51667,Sleigh,Pending,SS-8524
1109-central florida-Sleigh,central florida,Channel 9 WFTV ran a tape of the object seen over the Central Florida area last Tuesday (?).  It was rather a good tape so perhaps y,us,10/02/2019,0,28.54218,-81.46032,Sleigh,Closed,SS-7250
110-superior-triangle,superior,Object was a blue triangle with a long tail on either ends of the rear it,us,11/01/2018,0,47.19167,-114.89083,triangle,Active,SS-8229
1110-andover-Sleigh,andover,emmited a green/white glow,us,10/02/2019,86400,42.65833,-71.13750,Sleigh,Closed,SS-7248
1111-desert aire (mattawa)-other,desert aire (mattawa),Very bright yellowish with flames from short tail.  Travelling horiz. East above Saddle Mountains. Second one appeared going in opposi,us,10/02/2019,1200,46.67944,-119.91611,other,Active,SS-7247
1112-redding airport-light,redding airport,Chased light approxamentley 1400 miles in plane at mk. 3.8 for 1.8 hours,us,10/02/2019,167,40.51172,-122.29864,light,Closed,SS-7245
1113-denver-light,denver,A star was moving grew very bright then faded out. a few minutes later  we spotted two stars moving fast North and South.  Then we s,us,10/02/2019,900,39.73917,-104.98417,light,Active,SS-7246
1114-chico-fireball,chico,large solid spherical bright emerald green with yellow fiery tail coming across sky at a slow downward angle.  No impact felt or hear,us,10/02/2019,7,39.72861,-121.83639,fireball,Closed,SS-7243
1115-savannah-disk,savannah,Unable to sleep looking out window became aware of something coming over top of building lit from beneath almost luminescent. Slowl,us,10/02/2019,30,32.08333,-81.10000,disk,Active,SS-7244
1116-mentor-changing,mentor,got up lights went out saw light outside square balloon-shapes objcets and sm. gold discs lights changed shape got scared then saw b,us,10/02/2019,0,41.66611,-81.33972,changing,Active,SS-7241
1117-shasta/sand flat-fireball,shasta/sand flat,ASLEEP AGAIN AFTER SEEING DISC 35 MIN PRIVIOUS.  LARGE SLOWMOVING GREEN FIREBALL 200FT AGL MOVING W.TO E. STUCK TREES MADE LOUD CRACK,us,10/02/2019,7,40.65098,-122.36390,fireball,Pending,SS-7242
1118-bothell-other,bothell,Pulsating bright green lights seen NorthWest of Bothell area. Number of lights would change from 1 to sometimes 4 or 5.,us,10/02/2019,1200,47.76250,-122.20417,other,Pending,SS-7240
1119-mount shasta-Sleigh,mount shasta,multiple anomalious lightswhite flashesorange fireball wt/rd lights on side of Mt. Shasta moving and signiling,us,10/02/2019,18000,41.31000,-122.30944,Sleigh,Pending,SS-7239
111-goat island/isle of palm (between intracoastal waterway)-fireball,goat island/isle of palm (between intracoastal waterway),saw a glowing sphere with a tail shoot across the sky from the West to East (from US toward Atlantic Ocean),us,11/01/2018,10,33.83608,-81.16372,fireball,Pending,SS-8222
1120-shasta/sand flat-disk,shasta/sand flat,LARGE DISK FLOATED OVER SAND FLAT ABT 200 FT AGL N TO S DIRECTION VIEWED 3 LARGE RECTANGULAR LTS (LIKE WINDOWS) STAR FIELD BLOCKED OUT.,us,10/02/2019,60,40.65098,-122.36390,disk,Closed,SS-7238
1121-cozumel (mexico) and ocho rios (jamaica) (between)-triangle,cozumel (mexico) and ocho rios (jamaica) (between),My husband and I while traveling on our honeymoon observed something strange following our ship just before midnight.,us,10/02/2019,2700,20.42298,-86.92234,triangle,Closed,SS-7237
1122-puerto rico (puerto rico)-Sleigh,puerto rico (puerto rico),Woman calls regarding fiance who is having peculiar flash back recall of alien type creatures.  Directed to investigator.,us,11/02/2019,0,18.22083,-66.59015,Sleigh,Active,SS-7236
1123-milwaukee-Sleigh,milwaukee,Man  on Hwy 43 SW of Milwaukee sees large bright blue light streak by his car descend turn cross road ahead strobe. Bizarre,us,11/02/2019,120,43.03889,-87.90639,Sleigh,Active,SS-7235
11246-gb-triangle,chester (uk/england),the B-2 lookalike moved from being Stationery over my head and moved off at slow speeds from my position.,gb,12/03/2004,180,53.20000,-2.91667,triangle,Closed,SS-8519
1124-oakland-Sleigh,oakland,Woman repts.  bright light in NW sky suddenly approaches her flies slowly overhead.  Swept wings 2 blurry lights either side.,us,11/02/2019,60,37.80444,-122.26972,Sleigh,Active,SS-7234
1125-new york city (brooklyn)-Sleigh,new york city (brooklyn),Young man mother witness watch strange red obj. 45 deg. above horizon w/ binocular.  Obj. suddenly fades disappears from sight.,us,11/02/2019,720,40.71417,-74.00639,Sleigh,Pending,SS-7232
1126-huntington-Sleigh,huntington,Young man &amp; grandfather see a large orange round or oval obj. move along horizon very fast hover move erratically.  Bizarre,us,11/02/2019,120,38.41917,-82.44528,Sleigh,Closed,SS-7233
11279-gb-Sleigh,london (uk/england),5 triangle shaped Sleigh over London,gb,05/04/2004,60,51.51412,-0.09369,Sleigh,Active,SS-8522
1127-eureka springs-light,eureka springs,Bright light due south traveling east extremely slowly. Bright flash given off from object every 10 seconds with a dim flash every 3,us,11/02/2019,900,36.40111,-93.73778,light,Active,SS-7230
1128-iowa city-Sleigh,iowa city,Man witnesses 2 white aircraft rendezvous at high altitude fly toward bizarre obj. approaching very fast.  Obj. sparkled.,us,11/02/2019,20,41.66111,-91.53000,Sleigh,Active,SS-7231
1129-lake oswego-Sleigh,lake oswego,Man reports brief sighting of peculiar white object in daytime sky.  (See later sighting on same day.),us,11/02/2019,5,45.42083,-122.66944,Sleigh,Pending,SS-7228
112-bailey/fairplay (between off hy 285)-Sleigh,bailey/fairplay (between off hy 285),The sleigh was roof high and I observed it very closely for at least 3 to 5 minutes,us,11/01/2018,300,39.22471,-106.00196,Sleigh,Active,SS-8227
1130-lake oswego-Sleigh,lake oswego,Man reports witnessing 2 diamond-shaped objects overhead. (Second sighting on same day.),us,11/02/2019,90,45.42083,-122.66944,Sleigh,Active,SS-7229
1131-vacaville-Sleigh,vacaville,Young woman several family members witness peculiar orange disc hovering over neighbors house.  Within 100 ft. (est.).,us,11/02/2019,0,38.35667,-121.98667,Sleigh,Active,SS-7226
11322-gb-Sleigh,motherwell (uk/scotland),HBCCSleigh CANADIAN REPORT:  The objects were both orange in colour and seemed to shimmer with long flowing tendrils.,gb,05/04/2004,180,55.78333,-4.00000,Sleigh,Active,SS-8520
1132-austin-Sleigh,austin,Man reports wife went out to empty trash disappears for 90 min. returns disoriented and acting strangely.,us,11/02/2019,5400,30.26694,-97.74278,Sleigh,Pending,SS-7227
1133-piedmont-Sleigh,piedmont,Woman repts. big disc the size of a volleyball very bright like a landing light w/ a green tinge on top flew over  house to N.,us,11/02/2019,0,37.82444,-122.23056,Sleigh,Closed,SS-7224
1134-portland-light,portland,looking west the object appeared approx near the top of our atmosphere. It was huge It at first just seemed to appear out of thin air.,us,11/02/2019,25,45.52361,-122.67500,light,Pending,SS-7225
1135-norwark-fireball,norwark,I saw a white object shoot across the sky at about 50-100 feet high. Looked like a comet but was way to close to the ground and was tr,us,11/02/2019,60,41.11774,-73.40816,fireball,Active,SS-7222
1136-crescent city-Sleigh,crescent city,Woman goes outside to retrieve paper sees some lights hovering above ocean.  White lights turn red begin zigzagging stopped.,us,11/02/2019,600,41.75611,-124.20056,Sleigh,Active,SS-7223
1137-tacoma-Sleigh,tacoma,Woman repts. 5-6 rocket ship-shaped things w/sparks flying out back end flying down vert.out of the night sky. Good rept.,us,11/02/2019,180,47.25306,-122.44306,Sleigh,Pending,SS-7220
1138-gb-Sleigh,east kilbride (south lanarkshire) (uk/scotland),It was from a high flat window several miles away high really high up in the sky. I was scepticle as the object never moved I could,gb,11/02/2019,3600,55.76667,-4.16667,Sleigh,Active,SS-8780
1139-des moines-Sleigh,des moines,Man repts.long silver obj. seemed to roll alternated from silver to gray.  Had a red glow near tail released gold/yellow sparks.,us,11/02/2019,120,47.40194,-122.32306,Sleigh,Active,SS-7221
113-seattle-other,seattle,randomly moving starlike shape,us,11/01/2018,30,47.60639,-122.33083,other,Active,SS-8220
1140-dayton-Sleigh,dayton,Several young people witness lime-green glowing sphere descend from W to E in N sky disappear below hor.  Other repts.,us,11/02/2019,5,46.32389,-117.97139,Sleigh,Active,SS-7218
1141-madison-Sleigh,madison,Co. emerg. dispatch relays sighting of pointed oval obj. by family of 4.  When bright light dimmed spikes sticking out visible.,us,11/02/2019,360,43.07306,-89.40111,Sleigh,Pending,SS-7216
1142-sandpoint-Sleigh,sandpoint,Man calls to report multiple witnesses to green fireball over WA ID MT.  Very strange object,us,11/02/2019,20,48.27667,-116.55222,Sleigh,Closed,SS-7219
1143-spokane-Sleigh,spokane,Empl. of KREM-TV calls regarding multiple sightings of bright green object w/ orange tail reported by multiple callers.,us,11/02/2019,20,47.65889,-117.42500,Sleigh,Active,SS-7217
11449-gb-changing,rugeley (uk/england),It was pureley by chance that this unidentified object was spotted by my friend and I I was preparing to go to work for the evening w,gb,06/04/2004,2400,52.76667,-1.93333,changing,Pending,SS-8517
1144-troy-Sleigh,troy,Two women witness green obj size of full moon fly directly toward them descend from SE.  Illuminated trees on top of mtn..,us,11/02/2019,2,48.46333,-115.88861,Sleigh,Pending,SS-7214
11454-gb-cigar,brighton (uk/england),the object appeared to float for a long time and gently spun around.it was along way away and hard to see if there were any markings.on,gb,06/04/2004,0,50.83333,-0.15000,cigar,Active,SS-8518
1145-wilsonville-light,wilsonville,Woman repts. seeing round flashing lights moving S to N while in hospital.,us,11/02/2019,15,45.30000,-122.77250,light,Closed,SS-7215
1146-bellevue-Sleigh,bellevue,Former mil. officer (ret.) w/ son &amp; 4 others witnessed a very bright obj. in cloudless blue sky.  Alternated silver black then white.,us,11/02/2019,1500,47.61056,-122.19944,Sleigh,Active,SS-7212
1147-godfrey-Sleigh,godfrey,Man &amp; 2 sons witness pursue in car strange obj. in rural area. Was size approx. color of moon. Odd shape haze. Winked out.,us,11/02/2019,2400,38.95556,-90.18667,Sleigh,Active,SS-7213
1148-fairfield-light,fairfield,spotted light moving through the sky at high rate of speed.  Thought to be a plane or helicopter but too fast for helicopter and han on,us,11/02/2019,1800,44.58833,-69.59917,light,Active,SS-7210
1149-scofield barracks-Sleigh,scofield barracks,Soldier reports seeing a stationary obj. to S w/ red &amp; blue flashing lights.  Still clearly visible even after sun has risen.,us,11/02/2019,1800,21.49550,-158.06266,Sleigh,Pending,SS-7211
114-wasco-disk,wasco,I saw the craft almost stationary about 75 yards out; and 75 yards high .I looked at for about one minute then ran back to our house to,us,11/01/2018,120,45.59194,-120.69694,disk,Active,SS-8225
1150-miami-Sleigh,miami,FAA controller relays  Sleigh sighting  reported by crew of aircraft 15 miles SE of Lakeland FL. Vortac. Did not show on a/c radar.,us,11/02/2019,0,25.77389,-80.19389,Sleigh,Pending,SS-7208
11514-gb-Sleigh,southampton (uk/england),for about 15 mins me and a freind watched 9 lights in sleigh in the south of england (uk) on the 05/17/04,gb,06/04/2004,900,50.90000,-1.40000,Sleigh,Pending,SS-8515
1151-mergas-Sleigh,mergas,Several people witness 4 little red lights move across sky.  They darted erratically moved fast.  Some yellow light present too.,us,11/02/2019,0,32.16562,-82.90008,Sleigh,Active,SS-7209
11521-gb-Sleigh,doncaster (uk/england),17 May 2004 - Sleigh sighting in the UK. Three large oval shaped lights moving very fast in the sky.,gb,06/04/2004,2,53.53333,-1.11667,Sleigh,Active,SS-8516
1152-crescent city-Sleigh,crescent city,Man witnesses strange white oval-shaped light being pursued by 2 fast aircraft.  Very high fast.  Obj dramatically outpaced a/c.,us,11/02/2019,300,41.75611,-124.20056,Sleigh,Closed,SS-7206
11534-gb-other,manchester (uk/england),Small star like objects that move at a slow pace at high altitude and gradually fade away.,gb,06/04/2004,0,53.50000,-2.21667,other,Pending,SS-8513
11537-gb-cigar,kent (uk/england),black cigar shaped object,gb,06/04/2004,900,51.25000,0.75000,cigar,Pending,SS-8514
1153-moab-fireball,moab,I saw it through the ceiling of my tent.  It was brighter than anything in the sky.  It was probably a large meteor or fireball as it i,us,11/02/2019,5,38.57333,-109.54917,fireball,Active,SS-7207
1154-covington-changing,covington,While viewing double dotted line contrail we sighted metallic craft followed later by more which sometimes appeared like spheres and,us,11/02/2019,1800,47.34833,-122.11361,changing,Pending,SS-7204
1155-grass lake-Sleigh,grass lake,Man &amp; wife witness large white luminous ball w/ bright blue tail descend from W to E in N sky.  Moved very rapidly.  Good rpt.,us,11/02/2019,60,42.25083,-84.21306,Sleigh,Active,SS-7205
1156-page (lake powell)-Sleigh,page (lake powell),The sleigh was roof high and I observed it very closely for at least 3 to 5 minutes,us,11/02/2019,30,36.90861,-111.47278,Sleigh,Pending,SS-7203
1157-rocky point-Sleigh,rocky point,Woman repts. being awakened by strange whine like a jet.  Went outside saw bizarre delta-shaped craft. Obj. changed shape,us,11/02/2019,60,47.59306,-122.66722,Sleigh,Pending,SS-7202
1158-vancouver-Sleigh,vancouver,Fed. empl. (pilot &amp; a/c mech.) w/ 2 co-workers witness 2 metallic discs approach from E sky below contrails turn streak. Exclnt.,us,11/02/2019,180,45.63889,-122.66028,Sleigh,Active,SS-7201
11594-gb-Sleigh,london (hamstead heath) (uk/england),hamstead heath the new Sleigh,gb,06/04/2004,600,51.51412,-0.09369,Sleigh,Closed,SS-8511
1159-beaverton-Sleigh,beaverton,Mans dog suddenly starts acting very bizarrely threatens to bite him.  He takes dog outside witnesses bizarre light hover leave.,us,11/02/2019,45,45.48722,-122.80250,Sleigh,Active,SS-7200
115-ranger-triangle,ranger,Late night summer of 1979.  Three triangle shaped craft.,us,11/01/2018,900,38.12056,-82.18556,triangle,Active,SS-8218
11601-gb-cigar,london (uk/england),Spotted by 8 year old girl who looked out window after hearing a beeping noise.  Described what she saw as a flying submarine with flas,gb,06/04/2004,0,51.51412,-0.09369,cigar,Closed,SS-8512
1160-vancouver-Sleigh,vancouver,Man rpts hearing on Mutual Network News of bizarre Sleigh landing interaction  in Malaysia. (See Bangkok News early JN95),us,11/02/2019,0,45.63889,-122.66028,Sleigh,Pending,SS-7199
1161-mesa-light,mesa,Saw Falling star fall then stop and move away from us,us,11/02/2019,300,33.42222,-111.82194,light,Pending,SS-7198
1162-everson-other,everson,looked like jet trail coming straight down like plane crashing.  Stopped and two more appeared in other same vacinity different angles.,us,11/02/2019,1500,48.92028,-122.34139,other,Active,SS-7197
11631-gb-diamond,london (uk/england),I switched the light off and went to bed Iwas looking out of the window when I saw a bright red and whte light.,gb,06/04/2004,0,51.51412,-0.09369,diamond,Active,SS-8509
1163-bozeman-Sleigh,bozeman,THREE SMALL FLYING OBJECTS CAME TOGETHER FROM DIFFERNT AREAS TO FORM A STACKED sleigh THEN ROTATED  CLOCK WISE TO ABOUT 2 OCLOCK FO,us,11/02/2019,900,45.67972,-111.03778,Sleigh,Active,SS-7196
1164-santa clarita valley-disk,santa clarita valley,objects were stationary solid color almost like a star. then the objects moved across the area redwhite lights moving faster than,us,11/02/2019,90,34.41792,-118.54251,disk,Active,SS-7195
1165-indianapolis (southeast)-light,indianapolis (southeast),while going on our nightly walk my wife and i saw a bright object (as bright as moon ) streak accross the southeastern sky. it seemed,us,11/02/2019,5,39.76833,-86.15806,light,Active,SS-7194
1166-superior-Sleigh,superior,Triangular sleigh of lights observed shortly after sunset rotated every few seconds. Other aircraft lights observed in area but did,us,11/02/2019,720,39.95278,-105.16806,Sleigh,Active,SS-7193
1167-conway-triangle,conway,Many blue lights.  About 60 meters long (base to point).  30 meters high.,us,11/02/2019,900,35.08861,-92.44194,triangle,Active,SS-7192
1168-boise-light,boise,Bright gold color light that flew west to east.,us,11/02/2019,180,43.61361,-116.20250,light,Pending,SS-7191
1169-stevensville-other,stevensville,looked to east saw sparkling dot with white plume coming out of top.to left of object saw fast moving aircraft leaving vapor trails. As,us,11/02/2019,60,46.51000,-114.09222,other,Active,SS-7190
116-las cruces-fireball,las cruces,Orange glowing ball moving at height of 50 to 300 feet over and around a city park (Apodaka Park). Pursued by 2--3 helos w/searchlight,us,11/01/2018,3600,32.31222,-106.77778,fireball,Active,SS-8223
1170-stevensville-other,stevensville,Saw sparkler type light with white plume out of top in Eastern sky about 60 degrees above horizon.,us,11/02/2019,90,46.51000,-114.09222,other,Pending,SS-7189
1171-temple-cylinder,temple,Just after sunset saw bright glowing object in western sky at 30 deg. above horizon.  Smaller bright lights appeared and disappeared ne,us,11/02/2019,600,31.09806,-97.34250,cylinder,Pending,SS-7188
1172-spanaway-Sleigh,spanaway,driving north on hwy 7 approximately 22:30hrs on oct 20 1999 out of the corner i saw a streak of light traveling from the nw to the,us,11/02/2019,10,47.10417,-122.43333,Sleigh,Pending,SS-7187
1174-amity-Sleigh,amity,The sleigh was roof high and I observed it very closely for at least 3 to 5 minutes,us,11/02/2019,5,45.11583,-123.20611,Sleigh,Closed,SS-7186
11753-gb-Sleigh,west yorkshire (uk/england),HBCCSleigh CANADIAN REPORT:  The object fly slowly over us and behind a hillside making further observation impossible.,gb,06/04/2004,0,54.00000,-1.50000,Sleigh,Pending,SS-8510
1175-milwaukee-sphere,milwaukee,Bluish Orb Seen Above Milwaukee WI on Wednesday 10/20/99,us,11/02/2019,8,43.03889,-87.90639,sphere,Active,SS-7185
1176-montesano-fireball,montesano,streaking fireball appeared and then disappeared and then reppeared. low angle of trajectory and very bright.,us,11/02/2019,10,46.98139,-123.60139,fireball,Active,SS-7184
1177-tumwater-fireball,tumwater,Green fireball going east to west across the sky.,us,11/02/2019,4,47.00750,-122.90806,fireball,Active,SS-7183
1178-portland (40 mi. west of)-Sleigh,portland (40 mi. west of),The sleigh was roof high and I observed it very closely for at least 3 to 5 minutes,us,11/02/2019,3,45.52361,-122.67500,Sleigh,Active,SS-7182
1179-kingston-light,kingston,One object consisting of 1 large and 2 small bright white lights flew over road at very low altitude.,us,11/02/2019,3,47.79889,-122.49694,light,Closed,SS-7181
117-englewood-sphere,englewood,A white ball was moving across the sky. It has a tail like a comet. T he sun was just below the horison. Then the light stopped. It  hu,us,11/01/2018,60,26.96167,-82.35278,sphere,Closed,SS-8215
11806-gb-cylinder,salisbury (uk/england),10ft white object 5ft off ground.,gb,07/08/2004,0,51.06667,-1.78333,cylinder,Closed,SS-8507
1180-lakeville (south of twin cities about 15 miles)-light,lakeville (south of twin cities about 15 miles),Light with green flashing light on bottom east of me about 10 oclock position over next county noticed while trying to view northern,us,11/02/2019,73800,44.64972,-93.24250,light,Active,SS-7180
11811-gb-circle,nottingham (uk/england),large round object with red and yellow lighting,gb,07/08/2004,1200,52.96667,-1.16667,circle,Active,SS-8508
1181-tehachapi-Sleigh,tehachapi,The sleigh was roof high and I observed it very closely for at least 3 to 5 minutes,us,11/02/2019,900,35.13222,-118.44806,Sleigh,Active,SS-7178
1182-lancaster-light,lancaster,I saw a bright light following me in the sky as I walked my dog.,us,11/02/2019,900,40.03778,-76.30583,light,Pending,SS-7179
1183-maryville/sevierville-cylinder,maryville/sevierville,I heard area coyotes and dogs howling very loudly and when I went out side I saw a cylindar shaped object with lights in a repeated cir,us,11/02/2019,60,35.78978,-83.86893,cylinder,Closed,SS-7176
1184-auburn-light,auburn,I was sitting in the family room of my home with windows facing North toward backyard when my attention was suddenly drawn to a very br,us,11/02/2019,2,47.30750,-122.22722,light,Active,SS-7177
1185-tigard (12 mi so of portland exit 290 i 5)-light,tigard (12 mi so of portland exit 290 i 5),Object moved north to south approx 40 deg.in 15 sec. and stopped.  Remained in that position till 0130am 11/22/99. at that time i went,us,11/02/2019,7200,45.43139,-122.77028,light,Active,SS-7174
11868-gb-light,broxburn (uk/england),These were not craft they were two bright flashes lasting between 30 seconds and 1 minute they equaled mars in brightness and sat one o,gb,07/08/2004,30,55.93333,-3.46667,light,Pending,SS-8505
1186-santa rosa-Sleigh,santa rosa,Woman goes out to smoke witnesses overhead something flapping its wings like a pteradactyl.  Obj. flew NW. Had blue lights.,us,11/02/2019,25,38.44056,-122.71333,Sleigh,Closed,SS-7175
1187-n. providence-Sleigh,n. providence,Man witnesses small white dot that came out of clouds. Was slow-moving white w/ red on tail.,us,11/02/2019,180,41.85355,-71.46766,Sleigh,Active,SS-7172
1188-garberville-Sleigh,garberville,Employee from KMUD radio station calls regarding sighting(s) over northern CA during previous night.,us,11/02/2019,0,40.10028,-123.79389,Sleigh,Active,SS-7173
1189-farmington-Sleigh,farmington,Man witnesses very small VERY bright light descending rapidly in NE sky.  Approx. 1/10 diameter of moon.,us,11/02/2019,5,44.64028,-93.14333,Sleigh,Pending,SS-7170
118-henry-light,henry,It looked like a star at first then it started moving in circles going straight up then back down againand then going in circles aga,us,11/01/2018,3600,36.20389,-88.41972,light,Pending,SS-8221
11906-gb-egg,widnes (uk/england),OK i put this behind me but in 1987 i was walking home from the pub and i heard a low humming noise i turned and there was a silver,gb,07/08/2004,60,53.35000,-2.73333,egg,Active,SS-8506
1190-bessemer-Sleigh,bessemer,Man wife 2 children  driving down long hill see bizarre cluster of lights like Christmas tree in the sky.  Multiple witnesses.,us,11/02/2019,900,33.40167,-86.95444,Sleigh,Active,SS-7171
1191-auburn-Sleigh,auburn,Young girl w/ friends witness bizarre triangle w/ 3 red dim lights streak across sky.  Strobed bright light.  Scared nauseous.,us,11/02/2019,6,38.89667,-121.07583,Sleigh,Active,SS-7168
1192-klamath falls-sphere,klamath falls,Object was seen just as it decended over the horizon behind local 7000 foot mountains to a heading of approximately 355 degrees alm,us,11/02/2019,3,42.22500,-121.78056,sphere,Active,SS-7169
11939-gb-rectangle,cambridgeshire (uk/england),Cambridgeshire England. The conditions were excellent: blue skies with a few sizable white clouds making an appearance. At around 11:,gb,07/08/2004,1500,52.33333,0.08333,rectangle,Pending,SS-8502
1193-hamilton-Sleigh,hamilton,The sleigh was roof high and I observed it very closely for at least 3 to 5 minutes,us,11/02/2019,120,39.39944,-84.56139,Sleigh,Active,SS-7166
1194-irvine-diamond,irvine,Large black diamond shaped object hovering and than disapeared to the north,us,11/02/2019,300,33.66944,-117.82222,diamond,Pending,SS-7167
1195-daytona beach-changing,daytona beach,METICAL OBJECT IN SKY WHICH KEPT CHANGING SHAPES,us,11/02/2019,180,29.21056,-81.02306,changing,Active,SS-7164
1196-sikeston-light,sikeston,Fast falling light in the south southeast sky turning from white to green.,us,11/02/2019,6,36.87667,-89.58778,light,Pending,SS-7165
11979-gb-Sleigh,london (uk/england),4 Nights i observed a hovering orb of light with 2 other observers this is the story  ((Sleigh Note:  Possibly a celestial body.  PD)),gb,03/09/2004,0,51.51412,-0.09369,Sleigh,Closed,SS-8504
1197-johnson city-Sleigh,johnson city,Young couple witness 2 huge objects pass overhead.  Had no wings 20 lights (est.) per side.  Very visible; hummed.  Good rpt.,us,11/02/2019,900,36.31333,-82.35361,Sleigh,Pending,SS-7162
1198-johannesburg (south africa)-other,johannesburg (south africa),What can only be described as a comet with multiple light sources (at least three - one large at front and one to the left of the front,us,11/02/2019,6,0.00000,0.00000,other,Pending,SS-7163
1199-mumbai (india)-other,mumbai (india),It glowed with a redlight in the sky. It moved horizontally and vertically a little. It looked like a star but it wasnt one. I just wo,us,11/02/2019,0,19.07598,72.87766,other,Active,SS-7160
119-canton-fireball,canton,While at work I was looking in the sky when I seen a Blueish/Green ball in the sky.It had a blueish/Green tail to itthe direction was,us,11/01/2018,120,42.30861,-83.48222,fireball,Pending,SS-8213
11-elk grove-fireball,elk grove,Greenish blue fireball streaking across horizon,us,11/01/2018,4,38.40889,-121.37056,fireball,Active,SS-8323
1200-rocklin (outside of sacramento)-Sleigh,rocklin (outside of sacramento),Heard loud whishing sound (10-15 sec) It circled the house and left. Was loud enough to wake 3 people up. Daughter went outside to inve,us,11/02/2019,15,38.79083,-121.23472,Sleigh,Active,SS-7161
1201-florien/hornbeck (between hwy 191)-teardrop,florien/hornbeck (between hwy 191),Craft appeared polished aluminum color nose down attitude flat bottom slightly domed on top hovering no noise heard no movement s,us,11/02/2019,60,31.32574,-93.39850,teardrop,Pending,SS-7158
12026-gb-other,london (uk/england),Brillently lite Trident shaped object hung in the sky,gb,03/09/2004,5400,51.51412,-0.09369,other,Active,SS-8500
12027-gb-changing,luton (uk/england),i seen two objects in the sky,gb,03/09/2004,1200,51.88333,-0.41667,changing,Closed,SS-8503
1202-erie-cylinder,erie,Someone pointed out an object in the western sky facing the Rocky mtns that appeared to be not moving.  Couldnt tell what it was.,us,11/02/2019,300,40.05028,-105.04944,cylinder,Closed,SS-7159
1203-hayward-cylinder,hayward,Rectangular gray object glided silently across the night sky and disappeared behind a cloud,us,11/02/2019,30,37.66889,-122.07972,cylinder,Active,SS-7156
12044-gb-circle,colwyn bay (town) (uk/wales),object  seen over wales englandin the 1970`s,gb,03/09/2004,10,53.30000,-3.75000,circle,Active,SS-8498
1204-hayward-disk,hayward,Vertical column w/3 lights in linear design moved silently across sky. It disappeared behind thin fog/cloud and never reappeared.,us,11/02/2019,60,37.66889,-122.07972,disk,Pending,SS-7157
1205-norwood-triangle,norwood,Three dots forming a triangle Bright gold and glowing white. Moved up and down and sidewaysslowly.Stopped and hovered then disappeare,us,11/02/2019,900,39.89167,-75.30000,triangle,Active,SS-7154
1206-hollister-Sleigh,hollister,Man calls to relay sighting of very large white light in sky.  Obj. developed tail like comet.  Other observers.  Called police.,us,11/02/2019,60,36.85250,-121.40056,Sleigh,Closed,SS-7155
1207-mesa-light,mesa,looked up to see light appear out of nowhere: as if it saw me it sped up; shot into NOTHING  It was head WSW but it disappeared too,us,11/02/2019,5,33.42222,-111.82194,light,Closed,SS-7152
1208-iowa city-sphere,iowa city,round white ball beyond treetops straight north moving ENE fluctuating,us,11/02/2019,180,41.66111,-91.53000,sphere,Pending,SS-7153
1209-baldwin-light,baldwin,I am a former pilot and current skydiving student.  I was near a small private airport in Baldwin WI watching several loads of jumpers,us,11/02/2019,7200,44.96667,-92.37417,light,Active,SS-7150
120-wayzata-fireball,wayzata,Boating on Lake Minnetonka in MN on warm summer night skies clear fireball appeared travelling from East to West at about 60 degrees,us,11/01/2018,6,44.97417,-93.50639,fireball,Active,SS-8219
1210-gardena (los angeles county)-Sleigh,gardena (los angeles county),The sleigh was roof high and I observed it very closely for at least 3 to 5 minutes,us,11/02/2019,420,33.88833,-118.30806,Sleigh,Pending,SS-7151
1211-brunswick county-Sleigh,brunswick county,Sheriffs office calls to rept. that deputy 20 mi. SSE of Wilmington  is looking at peculiar bright white strobing light.,us,11/02/2019,1800,0.00000,0.00000,Sleigh,Pending,SS-7149
1212-laurel-Sleigh,laurel,Man entering Hwy. I-95 sees 2 round objs. hovering motionless in clear sky.  Color of pencil lead w/ copper.  Objs. STREAK in 1 sec.,us,11/02/2019,25,39.09917,-76.84861,Sleigh,Active,SS-7148
1213-florence-changing,florence,saw a shiney object moving from west to east and i was looking north.it had no sound.,us,11/02/2019,60,32.15333,-90.13111,changing,Active,SS-7147
1214-corinne-disk,corinne,A bright white disk-shaped object flew in veiw.,us,11/02/2019,15,41.55111,-112.10944,disk,Closed,SS-7146
12152-gb-cross,london (uk/england),wavering and no sound,gb,04/09/2004,90,51.51412,-0.09369,cross,Closed,SS-8501
1215-huntington beach-Sleigh,huntington beach,The sky was clear. I was on my porch smoking and I noticed three egg shaped lights in the sleigh of a triangle flying very fast...,us,11/02/2019,30,33.66028,-117.99833,Sleigh,Pending,SS-7145
1216-bullhead city-light,bullhead city,I was out with my dogs and watched a red light object moving slowly from so. to so. west and stopping and moving very slow.   It remain,us,11/02/2019,1200,35.14778,-114.56750,light,Pending,SS-7144
1217-reseda-sphere,reseda,What looked like a star appeared to be flashing multi-colors and oscillating.,us,11/02/2019,7200,34.20111,-118.53556,sphere,Closed,SS-7143
1218-costa mesa-light,costa mesa,Object was fairly still however would make unusually sharp moves on occasions.,us,11/02/2019,3600,33.64111,-117.91778,light,Active,SS-7142
1219-carthage-triangle,carthage,I was traveling west on Hwy 79 and there was a super-bright star in the sky with a light going up the back and two red lights on the si,us,11/02/2019,7200,32.15722,-94.33722,triangle,Pending,SS-7140
121-trabuco-light,trabuco,It was approx. 10:30 PM when my mother did her usual routine of walking the dogs before going to bed.  She lives in a rural area within,us,11/01/2018,1800,36.38321,-6.21545,light,Pending,SS-8217
1220-cookstown-cylinder,cookstown,the object was moving very slow  flashing  red and green lights  other  aircraft were moving going  on there normal route  i looked at,us,11/02/2019,1800,40.04889,-74.56278,cylinder,Pending,SS-7141
12216-gb-cigar,rubery (uk/england),A long black shape which appeared to be changing shape as it drifted high in the direction of a slight breeze.,gb,09/09/2004,1800,52.40000,-2.01667,cigar,Active,SS-8496
1221-concord (near)-other,concord (near),Objects travelling westward bright lights revovling.,us,11/02/2019,120,35.40861,-80.57972,other,Closed,SS-7137
1222-oshkosh-cylinder,oshkosh,On my way to work I was traveling south on highway 41 between Oshkosh and Fond Du Lac Wi. I was watching a plane high in the air spray,us,11/02/2019,7,44.02472,-88.54250,cylinder,Active,SS-7139
12231-gb-triangle,west lancashire (uk/england),Witnessed a red metallic triangle cross the sky over OrmskirkWest LancashireUK.Estimated time 17.10pm.I was outside in the ba,gb,09/09/2004,20,53.88900,-2.63378,triangle,Active,SS-8499
1223-charlotte-light,charlotte,Approx. 6-8 jets in sky. @ bright shining objects like small stars standing still. As one jet moved toward them one moved away at a mu,us,11/02/2019,600,35.22694,-80.84333,light,Active,SS-7135
12246-gb-Sleigh,whitehaven (uk/england),My reason for entering this site is to ask rather than state that i have seen a Sleigh ((Sleigh Note:  Possible bird in flight.  PD)),gb,09/09/2004,0,54.55000,-3.60000,Sleigh,Pending,SS-8494
1224-moravia-flash,moravia,Approximately 20 lights that sometimes flashed red and white were moving  through the sky.  They did not appear to be flying toward a c,us,11/02/2019,5400,42.71250,-76.42194,flash,Active,SS-7138
1225-tacoma-triangle,tacoma,I saw a huge triangular object traveling at a high rate of speed while I was on my way to my evening shift at work,us,11/02/2019,15,47.25306,-122.44306,triangle,Closed,SS-7133
1226-gb-oval,newport (uk/england),oval lit up brigthly with flashing lights at the bottom.,gb,11/02/2019,1295,52.01667,-4.83333,oval,Active,SS-8785
1227-lombard-disk,lombard,It was so huge it took my breath away. At first I thought it was the moon until I opend my sun roof and saw the moon above me. I follow,us,11/02/2019,0,41.88000,-88.00778,disk,Active,SS-7136
12289-gb-Sleigh,yeovil (somerset) (uk/england),A loud sound that slowly moved from North to South like slowing  aircraft engines then oscillating,gb,09/09/2004,1200,50.95000,-2.63333,Sleigh,Active,SS-8497
1228-petal-triangle,petal,Object was seen heading north just east of Petal Ms at appox 1500ft It was the size of a DC-10...It hovered  and moved slowly to the,us,11/02/2019,180,31.34639,-89.26000,triangle,Active,SS-7131
1229-laurel-oval,laurel,bright object moving slowly across sky .Too bright to be airplane and no red or green wing lights,us,11/02/2019,180,31.69389,-89.13056,oval,Active,SS-7134
122-georgetown-changing,georgetown,Appeared to be space-plane re-entering atmosphere.  Eventually flew directly overhead without ever making a sound.  First appeared to b,us,11/01/2018,120,30.63250,-97.67694,changing,Active,SS-8211
12309-gb-Sleigh,london (uk/england),Fast moving objects flying in sleigh with no sound,gb,09/09/2004,10,51.51412,-0.09369,Sleigh,Active,SS-8495
1230-prince of wales island-Sleigh,prince of wales island,Man rpts very large circular obj passing slowly across N sky from W to E to horizon.  Dia. of full moon  Burning material ejected.,us,11/02/2019,120,55.77943,-132.81800,Sleigh,Closed,SS-7129
1231-siletz-Sleigh,siletz,Woman &amp; 3 witnesses rpt stat. obj flashing white green red lights.  Zigzags dramatically. (Reptd. 02NO95 obj. not visible in sky.),us,11/02/2019,900,44.72194,-123.91889,Sleigh,Pending,SS-7132
1232-kansas city  (over the metro area)-Sleigh,kansas city  (over the metro area),The sleigh was roof high and I observed it very closely for at least 3 to 5 minutes,us,11/02/2019,900,39.09972,-94.57833,Sleigh,Pending,SS-7127
1233-knoxville-Sleigh,knoxville,Unusual lights in sky moving and fading out.,us,11/02/2019,40,35.96056,-83.92083,Sleigh,Active,SS-7130
1234-greenwood-Sleigh,greenwood,Man &amp; wife see very bright obj do loop then see 3 more objs.  Got other witnesses saw 11 objs Seemed to shoot at each other.,us,11/02/2019,10800,38.89667,-120.91167,Sleigh,Active,SS-7126
12354-gb-cone,ticknall (near derby) (uk/england),Cone shaped object with lights appearing to hover in the distance,gb,11/09/2004,40,52.80000,-1.48333,cone,Closed,SS-8491
1235-auburn-Sleigh,auburn,Woman repts. a white round meteor viewed from Rte. 64.  Viewed to north approx. 25 deg. above horizon.,us,11/02/2019,2,47.30750,-122.22722,Sleigh,Active,SS-7128
1236-canfield-light,canfield,White light east southeast of here seems to be flashing red and blue,us,11/02/2019,0,41.02500,-80.76111,light,Pending,SS-7124
12376-gb-sphere,marlborough (uk/england),I was approaching the village on foot and noticed a bright orange ball it appeared stationary.,gb,11/09/2004,180,51.41667,-1.71667,sphere,Active,SS-8493
1238-cedar rapids-teardrop,cedar rapids,I was driving home after work when I was a teardrop silvery and shiny object (and it was obvious that it was chrome colored) passed ac,us,11/02/2019,40,42.00833,-91.64389,teardrop,Active,SS-7122
1239-little rock-Sleigh,little rock,I saw an object in the sky above Little Rock. It first appeared to be an airplane without any discernable features or a shiny balloon.,us,11/02/2019,240,34.74639,-92.28944,Sleigh,Pending,SS-7125
123-mandan-disk,mandan,I viewed an object that looked like a star initially but when viewed standing still it moved slightly. It looked like lights were flash,us,11/01/2018,1800,46.82667,-100.88917,disk,Pending,SS-8216
1240-ellisville-Sleigh,ellisville,Woman repts. 4 lights then 6 lights look like bright street lights in the sky.  Criss-crossing dancing motion. (Adv. lights?),us,11/02/2019,1800,38.59250,-90.58694,Sleigh,Pending,SS-7120
1241-kodak-Sleigh,kodak,Man &amp; wife witness very bizarre obj. moving erratically in sky.  It looked like an airplane but it wasnt (one.)  1 blinking light.,us,11/02/2019,60,35.97444,-83.62694,Sleigh,Closed,SS-7123
1242-ocean city-light,ocean city,my wife and i saw 3 lighted objects in the sky. the objects initially were a continuous bright light and then a pulsating soft light.,us,11/02/2019,300,38.33639,-75.08528,light,Active,SS-7118
1243-seattle-Sleigh,seattle,Woman rpts peculiar bright obj. in NW sky 45 deg. above horizon.  (Reported 02NO95 obj. was not present on subsequent nights.),us,11/02/2019,1800,47.60639,-122.33083,Sleigh,Active,SS-7121
1244-kokomo-Sleigh,kokomo,Young couple in car see 3x lights approaching slowly in air. White on  sides flashing red in middle.  High-pitch hum. Big; solid.,us,11/02/2019,0,40.48639,-86.13361,Sleigh,Pending,SS-7116
12455-gb-circle,shrewsbury (uk/england),A round white object flew diagonally behind a cloud.,gb,11/09/2004,30,52.71667,-2.73333,circle,Pending,SS-8489
1245-darwen lancashire (uk/england)-Sleigh,darwen lancashire (uk/england),The sleigh was roof high and I observed it very closely for at least 3 to 5 minutes,us,11/02/2019,1200,53.82958,-2.59712,Sleigh,Pending,SS-7119
1246-woodbridge-oval,woodbridge,3 ooval objects came from about 75 degrees at high speed and turned West at steady speed.Object were engulphed in red and orange like f,us,11/02/2019,600,38.65806,-77.25000,oval,Pending,SS-7114
1247-san diego-Sleigh,san diego,The sleigh was roof high and I observed it very closely for at least 3 to 5 minutes,us,11/02/2019,10,32.71528,-117.15639,Sleigh,Active,SS-7112
1248-smithville-Sleigh,smithville,The sleigh was roof high and I observed it very closely for at least 3 to 5 minutes,us,11/02/2019,25,30.00833,-97.15917,Sleigh,Active,SS-7117
1249-tacoma-light,tacoma,Woman sees extremely bright fuschia-pink ball of light settle into neighbors field  Light reflected off truck; dog stared at it.,us,11/02/2019,120,47.25306,-122.44306,light,Pending,SS-7115
124-canby-Sleigh,canby,About 4 weeks apart my husband and I discovered round marks on our bodies after waking. No known cause is discernable. His has disappe,us,11/01/2018,0,45.26306,-122.69139,Sleigh,Pending,SS-8214
1250-tacoma-Sleigh,tacoma,Man sitting in hot tub sees satellite in E sky.  Obj. suddenly accelerated dramatically made zigzag turns departed very fast.,us,11/02/2019,4,47.25306,-122.44306,Sleigh,Active,SS-7113
1251-west hartford-Sleigh,west hartford,Passenger in car noticed haze that appeared to be divided into 3 sections w/ bright light in center.  Changed shape became disc.,us,11/02/2019,20,41.76361,-72.68556,Sleigh,Active,SS-7110
1252-boerne-Sleigh,boerne,Sec. officer at hospital  sees very bright blue light.  Silhouetted by cloud appears as coffee table w/ shirt box on top. Erratic.,us,11/02/2019,30,29.79444,-98.73167,Sleigh,Pending,SS-7111
12533-gb-cigar,basingstoke (uk/england),Dark with 3 or 4 flashing bands around it. Quite far away but clear. About the size of a jumbo jet making a faint humming noise. Left,gb,05/10/2004,60,51.26667,-1.08333,cigar,Pending,SS-8492
1253-san diego  (spring valley) (20 mi. e of sd airport)-fireball,san diego  (spring valley) (20 mi. e of sd airport),Wife driving in car sited orange fireball size of thumb at arms length. moving from west to east movig 1/3 of sky in 45 sec.length of t,us,11/02/2019,45,32.71528,-117.15639,fireball,Pending,SS-7109
12545-gb-other,wolverhampton (uk/england),intelligently controlled starcraft witnessed.,gb,08/11/2004,1200,52.58333,-2.13333,other,Active,SS-8487
12549-gb-Sleigh,london (uk/england),i was visiting my grandmas on on new years in 2002 we were playing cards in the living room and becouse of the smoke i left the room,gb,08/11/2004,300,51.51412,-0.09369,Sleigh,Pending,SS-8490
1254-clinton (southern end of whidbey island)-Sleigh,clinton (southern end of whidbey island),Object viewed (at night) multi-colored lights(very bright strobe-like),us,11/02/2019,1800,47.97861,-122.35444,Sleigh,Closed,SS-7108
12553-gb-other,london (uk/england),Indefinate shaped craft changing colour from blue to red.,gb,08/11/2004,900,51.51412,-0.09369,other,Pending,SS-8485
1255-imperial beach-fireball,imperial beach,A ROUND CIRCULAR SHAPE OBJECT LARGER THAN A AIRPLANE HOVERED OVER A RESIDENTIAL AREA FOR ABOUT 5MINUTES.BRIGHT RED LIGHT ILLUMINATED TH,us,11/02/2019,300,32.58389,-117.11222,fireball,Closed,SS-7107
1256-billings-Sleigh,billings,weather conditons were winds gusting 40/45 mph when all power went off in area we stepped outside and immediatly nsaw 8/10 large red l,us,11/02/2019,15,45.78333,-108.50000,Sleigh,Closed,SS-7106
1257-orland park/palos park-Sleigh,orland park/palos park,The sleigh was roof high and I observed it very closely for at least 3 to 5 minutes,us,11/02/2019,0,41.66889,-87.82028,Sleigh,Closed,SS-7104
1258-marthas vinyard-Sleigh,marthas vinyard,I want to refresh Peter Davenports memory about my former unpublished report of Sept.l2th or l3th of this year and his return EMAIL.,us,11/02/2019,0,41.43643,-70.60767,Sleigh,Active,SS-7105
1259-volinda-Sleigh,volinda,Woman &amp; 4 neighbors witness bright red light moving slightly across the sky.,us,11/02/2019,0,34.04529,-117.94368,Sleigh,Pending,SS-7102
125-san marcos-oval,san marcos,Friend and I were driving down the highway...moderate traffic. I noticed the aircraft first it was hoovering over the freeway about 30,us,11/01/2018,600,33.14333,-117.16528,oval,Active,SS-8209
1260-seattle-Sleigh,seattle,Woman calls to report a Sleigh in southern sky.  Flashing red blue green lights; stationary.  (Possible star?),us,11/02/2019,0,47.60639,-122.33083,Sleigh,Active,SS-7103
1261-north las vegas-Sleigh,north las vegas,Young woman goes outside see group of teenage girls looking as sky.  Large cigar-ship w/ bright lights hovering in sky.  Other rpts.,us,11/02/2019,0,36.19889,-115.11667,Sleigh,Pending,SS-7100
1262-puyallup-Sleigh,puyallup,Man witnesses small whitish blue-green ball pass overhead flying to east.,us,11/02/2019,900,47.18556,-122.29167,Sleigh,Active,SS-7101
12635-gb-fireball,manchester (uk/england),STAR LIKE OBJECT MOVING AT SPEEDFOLLOWED BY ANOTHER IN A HALF CIRCLE FLASH.,gb,08/11/2004,300,53.50000,-2.21667,fireball,Pending,SS-8488
1263-west valley city-Sleigh,west valley city,Young woman &amp; boyfriend witness a black obj...a round black disc w/ a dome move slowly overhead.  Suddenly disappeared.,us,11/02/2019,0,40.69161,-112.00105,Sleigh,Active,SS-7098
12640-gb-rectangle,glasgow (uk/scotland),Very large white rectunglar shaped object.,gb,08/11/2004,60,55.83333,-4.25000,rectangle,Active,SS-8483
1264-muskegon-Sleigh,muskegon,Man reports peculiar lights circling his residence.  (Probable advertising lights.),us,11/02/2019,0,43.23417,-86.24833,Sleigh,Active,SS-7099
1265-wolf lake-Sleigh,wolf lake,Woman repts. 4 to 6 Sleighs going in circle coming together near her house.  Was alarmed by sighting.  (Prob. advertising lights.),us,11/02/2019,0,44.00667,-85.83750,Sleigh,Pending,SS-7096
12667-gb-cylinder,bristol (uk/england),glowing object in clear blue sky,gb,08/11/2004,600,51.45000,-2.58333,cylinder,Active,SS-8486
1266-phoenix-Sleigh,phoenix,Young man in back of p/u truck witnesses flaming red/orange obj. to W near Luke AFB.  Flares dims rises vert. winks out.,us,11/02/2019,0,33.44833,-112.07333,Sleigh,Closed,SS-7097
1267-iowa city-Sleigh,iowa city,Man repts. witnessing flash followed by a classic Sleigh w/ a tailfin at back. Red color on top half of tailfin. Became triangular.,us,11/02/2019,0,41.66111,-91.53000,Sleigh,Active,SS-7094
1268-leesburg-other,leesburg,Craft appears faintly at first then drifted downward brightened and hovered at tree top level red in color then vanished.,us,11/02/2019,60,28.81056,-81.87806,other,Active,SS-7095
1269-riverside-Sleigh,riverside,Man sees seven very bright golden lights descend from sky hover and move strangely. Quickly  streaks to W.,us,11/02/2019,30,33.95333,-117.39528,Sleigh,Pending,SS-7091
126-fair lawn-oval,fair lawn,I spotted 2 Unidentified Flying Objects that night. It all started when my siter my dad and I went out to watch the meteor shower. My,us,11/01/2018,600,40.94028,-74.13222,oval,Pending,SS-8212
1270-san lorenzo (puerto rico)-Sleigh,san lorenzo (puerto rico),I was with my parent inside our car when suddenly we saw a 7 lights in sleigh on top of a mountain and then a we heard a big explosi,us,11/02/2019,60,18.19139,-65.96139,Sleigh,Pending,SS-7093
1271-beaverton-Sleigh,beaverton,Family returns from restaurant and notice emerald green beam of light going horizontally over their home. Beam ended abruptly.,us,11/02/2019,2400,45.48722,-122.80250,Sleigh,Active,SS-7090
12729-gb-Sleigh,hampshire (uk/england),I was outside feeding goats when I looked up and saw a quite long thin white object passing slowly overhead.,gb,08/11/2004,60,51.08333,-1.16667,Sleigh,Active,SS-8481
1272-eilmsport-Sleigh,eilmsport,PA Emer. Man. Agency relays report from citizen regarding Sleigh sighting.  (Established 19NO95 they were advertising lights.),us,11/02/2019,0,41.12786,-77.02052,Sleigh,Active,SS-7092
1273-auburn-Sleigh,auburn,Man experienced 15 sec. power outage in Enumclaw then witnesses major blue then green flash south of Auburn. 50 deg. of sky.,us,11/02/2019,10,47.30750,-122.22722,Sleigh,Active,SS-7088
12741-gb-oval,manchester (uk/england),Oval  silver shaped object darts left to right and vanishes,gb,08/11/2004,300,53.50000,-2.21667,oval,Pending,SS-8484
12744-gb-Sleigh,oxford (uk/england),2 unidentified lights,gb,08/11/2004,2400,51.75000,-1.25000,Sleigh,Active,SS-8479
1274-eugene-Sleigh,eugene,Three adults hear a strange noise see a strange star to W.  Obj. does gyrations then streaks N.  10 min. later they see 3 more.,us,11/02/2019,600,44.05222,-123.08556,Sleigh,Pending,SS-7089
1275-rock island-light,rock island,Man on Hwy 28 sees extremely bright obj. shoot across windshield blow up into many fragments when it entered cloud of fog.,us,11/02/2019,20,47.37722,-120.14278,light,Active,SS-7086
1276-solvang-Sleigh,solvang,Two young women driving to party encounter a large cylindrical-shaped obj. w/ a lot of lights on it. Drifted slowly streaked.,us,11/02/2019,600,34.59583,-120.13667,Sleigh,Closed,SS-7087
1277-kirkland-Sleigh,kirkland,Woman on cruise boat sees large obj. w/ 8-10 strange red lights passes overhead N to S dips rises vert. out of sight No sound.,us,11/02/2019,10,47.68167,-122.20750,Sleigh,Active,SS-7084
1278-bothell-Sleigh,bothell,Exp. Sleigh investigator MSleighN member witnesses very bright bluish/white flash of light that lit living room.  Descended rapidly.,us,11/02/2019,2,47.76250,-122.20417,Sleigh,Pending,SS-7085
12799-gb-light,peterborough (uk/england),yellow light that hovered and the flew straight the upwards,gb,02/12/2004,12,52.58333,-0.25000,light,Pending,SS-8482
1279-seatac-Sleigh,seatac,Airline empl. reports seeing Hughes-type helicopter near SeaTac Airport.  300-500 (est.) alt.. Unusual location.,us,11/02/2019,0,47.45389,-122.32056,Sleigh,Active,SS-7082
127-bothell-Sleigh,bothell,It looked like the sleigh on the USS Enterprise from Star Trek.  It had two disks one on top of the other.  Also it had a flashing wh,us,11/01/2018,1800,47.76250,-122.20417,Sleigh,Closed,SS-8207
1280-manson-Sleigh,manson,Man repts. 2 guys in scuba divers suits w/ wrap-around glasses in his apt..  Photographed man w/ flashlights.  Through wall,us,11/02/2019,0,47.88500,-120.15722,Sleigh,Active,SS-7083
1281-sedro woolley-Sleigh,sedro woolley,Husband &amp; wife see peculiar colorful stationary obj. to E over Alger Mtn..  (Possible star??),us,11/02/2019,1800,48.50389,-122.23611,Sleigh,Pending,SS-7080
1282-san diego-egg,san diego,Noticed illuminated egg-shaped object with strobe lights travel from N to S/SW. No engine noise and travelled slowly. Object emitted pa,us,11/02/2019,600,32.71528,-117.15639,egg,Active,SS-7081
1283-las vegas-Sleigh,las vegas,Woman repts. two stationary colorful lights to W &amp; NW of her position.  (Description not inconsistent w/ twinkling stars.),us,11/02/2019,2700,36.17500,-115.13639,Sleigh,Pending,SS-7079
1284-birmingham-Sleigh,birmingham,Man standing outside sees what looks like shooting star. Obj. split into 3 lights like isosceles triangle shot across sky to SE,us,11/02/2019,2,33.52056,-86.80250,Sleigh,Closed,SS-7078
1285-lake oswego-Sleigh,lake oswego,Woman repts. three peculiar green beams of light overhead.  (MSleighN investigator reptd. was probably laser-based adv. light.),us,11/02/2019,720,45.42083,-122.66944,Sleigh,Active,SS-7077
1286-american canyon-Sleigh,american canyon,Woman and daughter witness w/ binoculars 2 strange lights in sky.  Flashing white red green.  (Not inconsistent w/ twinkling star.),us,11/02/2019,1800,38.17500,-122.25972,Sleigh,Pending,SS-7076
12876-gb-light,egham (uk/england),light in the sky with peculiar movements,gb,02/12/2004,300,51.41667,-0.56667,light,Active,SS-8477
12878-gb-diamond,london (uk/england),A TINY BRIGHT OBJECT THAT MOVED ACROSS THE SKY THEN STOPPED COMPLETELY.,gb,02/12/2004,2100,51.51412,-0.09369,diamond,Pending,SS-8480
1287-midway-Sleigh,midway,Mother notices aircraft over Midway River suddenly engine noise seem to slow.  She &amp; kids see 2 mushroom shaped craft.,us,11/02/2019,120,31.80556,-81.43083,Sleigh,Active,SS-7074
12881-gb-light,bristol (uk/england),strange light above woods,gb,02/12/2004,7200,51.45000,-2.58333,light,Active,SS-8475
1288-salem-Sleigh,salem,4 individuals witness distinctly red light above clouds.  Changes to white back to red then disappears.  Video footage taken.,us,11/02/2019,180,44.94306,-123.03389,Sleigh,Active,SS-7075
1289-mountain city-Sleigh,mountain city,Computer engin. repts. seeing triangular ships over TN almost nightly.  Repts. overhearing radio commo. of  F-15  firing on Sleigh.,us,11/02/2019,1200,36.47444,-81.80500,Sleigh,Pending,SS-7072
128-plainview-light,plainview,we saw a sphere of light move steadily across the sky. Then it zig-zagged. It changed from whit to faint blue and flashed. It then ping,us,11/01/2018,120,40.77639,-73.46778,light,Active,SS-8210
1290-green co.-Sleigh,green co.,FAA empl. relays facts of written rept.  Man and woman encounter 3 bizarre ships that hovered over them on Hwy. 70.,us,11/02/2019,7200,35.82966,-85.72962,Sleigh,Closed,SS-7073
1291-blossburg-Sleigh,blossburg,Sen.mil.(ret.) sees large rnd bright ball of orange light aheadin sleigh w/ comm. a/c pass overhead NOT meteor.Exclnt rept.,us,11/02/2019,30,41.67944,-77.06417,Sleigh,Pending,SS-7070
1292-bandy-Sleigh,bandy,Young man sees very prominant white light streak from E to W in southern sky.  BRIGHT white light and VERY fast.  Short trail.,us,11/02/2019,4,0.00000,0.00000,Sleigh,Active,SS-7071
1293-riverside-Sleigh,riverside,Woman &amp; daughter see V-shaped obj. w/ red/blue/green lights streak across sky stop dead hover.  Many neighbors witness object.,us,11/02/2019,1800,40.03222,-74.95778,Sleigh,Closed,SS-7068
1294-lake city-Sleigh,lake city,Young man sees disc-shaped obj. w/ double dome--top and bottom w/ red light around middle do wild gyrations in N sky.  Streaked.,us,11/02/2019,45,47.71778,-122.28250,Sleigh,Active,SS-7069
12951-gb-cigar,hamilton (uk/scotland),hovering lightssilent making cloud,gb,09/02/2005,120,55.76667,-4.03333,cigar,Active,SS-8478
1295-frostburg-Sleigh,frostburg,Man (anonymous) repts. that his brother had seen a strange light streak from N to S.  Scared the daylights out of him.  (No facts.),us,11/02/2019,0,39.65806,-78.92861,Sleigh,Pending,SS-7066
12961-gb-Sleigh,york (uk/england),Fast travelling in sleigh rapid change of trajectory.,gb,09/02/2005,300,53.95412,-1.06426,Sleigh,Pending,SS-8473
1296-new york city-Sleigh,new york city,News media rept. Pakistani &amp; TWA airliners departing JFKennedy airport witness very bizarre fast obj. in their proximity.,us,11/02/2019,0,40.71417,-74.00639,Sleigh,Active,SS-7067
12970-gb-Sleigh,northampton (uk/england),WINTER  97/98 BRIGHT LIGHT TRAVELLING AT HIGH SPEED IN DIFFERENT DIRECTIONS TOWARDS THE EAST LASTED ABOUT 5 SECONDS.,gb,09/02/2005,5,52.25000,-0.88333,Sleigh,Pending,SS-8476
12973-gb-circle,london (uk/england),Me and a friend saw a sphere with a blue light hovering a jet then followed it and chased it away. I heard modem connection sounds,gb,09/02/2005,180,51.51412,-0.09369,circle,Closed,SS-8474
1297-odessa-Sleigh,odessa,Husband &amp; wife witness a large ball of light w/ a long green trail streak across sky.  Very dramatic sighting.,us,11/02/2019,30,42.33667,-76.78889,Sleigh,Active,SS-7064
12982-gb-triangle,essex (uk/england),I was being driven home by my ex-boyfriend around about 3am in the morning its November 1993 I was 17 years old then. I live in the,gb,09/02/2005,180,51.83333,0.58333,triangle,Active,SS-8471
1298-reading-Sleigh,reading,Man sees VERY BRIGHT orange/red distinctly round fireball STREAK across sky parallel to horiz. Long tail Not meteor he thought.,us,11/02/2019,5,40.33556,-75.92722,Sleigh,Pending,SS-7065
12992-gb-other,birmingham (uk/england),a huge roaring sound of some kind of animal sounding much bigger than a lion ..,gb,09/02/2005,300,52.46667,-1.91667,other,Closed,SS-8472
12996-gb-triangle,gravesend (uk/england),the three lights moved horizontal 1/4- 1/2 mile then shot up at great speed at 45 % stiil horizontal,gb,09/02/2005,20,51.43333,0.36667,triangle,Pending,SS-8469
1299-frostburg-Sleigh,frostburg,Man sees a bright yellow round ball of light w/ green tail stretching from hor. to hor. go slowly from NE to SE in W sky. Clear sky.,us,11/02/2019,5,39.65806,-78.92861,Sleigh,Closed,SS-7062
129-the dalles-fireball,the dalles,I was laying in my bed looking through the window which faces to the west. When suddenly a bright orange ball of fire appeared. I watch,us,11/01/2018,90,45.59472,-121.17750,fireball,Active,SS-8205
12-portland-light,portland,GETTING OUT OF MY CAR TO WORKI SAW A WIDE GREEN STREAK OF LIGHT IN THE SOUTHWEST SKYFROM SKY TO GROUND...........,us,11/01/2018,5,45.52361,-122.67500,light,Pending,SS-8325
1300-watkins glen-Sleigh,watkins glen,Six teenagers on hill witness a BRIGHT ball of fire w/ a green/yellow trail streak across the sky.  Covered 110 degrees in 3 seconds.,us,11/02/2019,3,42.38056,-76.87361,Sleigh,Active,SS-7060
1301-mansfield-round,mansfield,Man saw orange fireball pass across the sky at very high speed from E to W.  Approx. 1/4-1/2 dia. of moon.  Very fast bright.,us,11/02/2019,5,41.80722,-77.07778,round,Active,SS-7063
1302-tacoma-Sleigh,tacoma,Young man repts. he returned home from store neighborhood boys excited about strange obj. that had just passed overhead.,us,11/02/2019,0,47.25306,-122.44306,Sleigh,Pending,SS-7061
1303-basking ridge-Sleigh,basking ridge,Young man while driving N witnesses dramatic white fireball to east streak N to S.  Sees similar red streak N to S in W sky,us,11/02/2019,4,40.70611,-74.54972,Sleigh,Active,SS-7058
1304-orange-Sleigh,orange,Woman witnesses multiple red radiant objs. hovering over her mountaintop farm then immense white flash.  Objs. streaked S (?).,us,11/02/2019,900,44.14833,-72.40306,Sleigh,Active,SS-7059
1305-sector 18-Sleigh,sector 18,FAA Boston Cntr. relays 2 rpts:  2 comm. jetliner crews rept very bright light green tail pass by them on N side very fast. Close.,us,11/02/2019,5,28.56880,77.32239,Sleigh,Pending,SS-7056
1306-lower nazareth-Sleigh,lower nazareth,Woman witnesses huge triangular-shaped ship covered w/ bizarre lights like traffic lights.  Very dramatic sighting.,us,11/02/2019,180,40.70699,-75.30623,Sleigh,Active,SS-7057
1307-yarmouth-Sleigh,yarmouth,Young man reports huge bright white light w/ green wake pass overhead very fast.  Other witnesses stopped cars.,us,11/02/2019,5,43.80056,-70.18722,Sleigh,Pending,SS-7054
1308-york-Sleigh,york,Father son &amp; many bystanders witness incredible starlike obj. w/ white aura long green tail STREAK FAST from NE to SW.,us,11/02/2019,5,43.16175,-70.64826,Sleigh,Active,SS-7055
1309-fall river-Sleigh,fall river,Young woman saw extremely bright white light with green tail streak toward the south.  No sound.,us,11/02/2019,10,41.70139,-71.15556,Sleigh,Closed,SS-7052
130-blewett pass-top of mountain pass-light,blewett pass-top of mountain pass,Approx. 4 a.m.traveling to seattle I saw a oval shaped object with a line of light on the side it had a jet stream effect around it .,us,11/01/2018,4,47.75107,-120.74014,light,Closed,SS-8208
13107-gb-circle,wigan (uk/england),White small round object travelled across the sky north to south in seconds.Made no sound.,gb,09/02/2005,5,53.53333,-2.61667,circle,Active,SS-8466
1310-biddeford-Sleigh,biddeford,Man leaves work at hospital encounters large plate-shaped obj. w/ 3 multi-color rings around it.  Obj crossed road rose vert.,us,11/02/2019,120,43.49250,-70.45389,Sleigh,Active,SS-7053
1311-arlington-Sleigh,arlington,MSleighN member relays multiple reports about people who witnessed pink and blue flashes same night as sightings over Seattle.,us,11/02/2019,0,48.19889,-122.12389,Sleigh,Pending,SS-7050
1312-seattle-Sleigh,seattle,Man repts. witnessing peculiar red and blue flashes over Seattle.  One flash filled 180 deg. of sky w/ red light.  Observed an orb.,us,11/02/2019,10800,47.60639,-122.33083,Sleigh,Active,SS-7051
1313-seattle-Sleigh,seattle,Young woman repts. witnessing multiple flashes of red and blue light in and above the clouds.  Were to the NE of Capitol Hill.,us,11/02/2019,10800,47.60639,-122.33083,Sleigh,Active,SS-7049
1314-seattle-Sleigh,seattle,Young woman in Seattle Univ. dormitory sees bizarre pronounced red pink blue intense multiple flashes of light in clouds to east.,us,11/02/2019,1200,47.60639,-122.33083,Sleigh,Pending,SS-7048
1315-seattle-Sleigh,seattle,2nd Seattle Univ. student calls to report remarkable pink and  blue flashing lights in or above the clouds.,us,11/02/2019,2280,47.60639,-122.33083,Sleigh,Closed,SS-7047
1316-seymour-johnson afb-Sleigh,seymour-johnson afb,Duty sergeant rpts multiple calls from citizens regarding 1 or more (?) objects hovering maneuvering near USAF base. Radar neg.,us,11/02/2019,0,35.35018,-77.95236,Sleigh,Pending,SS-7045
1317-arcadia-Sleigh,arcadia,2x young men see large triangular obj. w/ lights on corners. Dips rises several times then STREAKS to W.  Had shimmering effect.,us,11/02/2019,3,34.13972,-118.03444,Sleigh,Active,SS-7046
1318-big flats-Sleigh,big flats,Woman relays that man &amp; son had witnessed a dramatic reddish-yellow light in the night sky.,us,11/02/2019,0,42.13722,-76.93722,Sleigh,Pending,SS-7043
1319-grandview-Sleigh,grandview,Multiple residents see 2x large triangles w/ lights &amp; fireball behind it fly over call 911.  Police choppers respond; neg.. Loud. TV.,us,11/02/2019,0,38.88583,-94.53278,Sleigh,Active,SS-7044
131-chubbuck-other,chubbuck,approach from east sky several lights in symetrical boomerang shape orbited earth in about 10 min. saw again same flight path much hi,us,11/01/2018,0,42.92083,-112.46528,other,Pending,SS-8203
13201-gb-light,bridlington (uk/england),Balls of light,gb,09/02/2005,600,54.09500,-0.20806,light,Closed,SS-8470
13206-gb-diamond,portsmouth (uk/england),orange half diamond shape craft.,gb,09/02/2005,14,50.79670,-1.08333,diamond,Active,SS-8468
1320-orlando-Sleigh,orlando,Woman repts. bizarre half circle obj. in sky to SE.  Projects ray downward  Something appeared to fall from the main object.,us,11/02/2019,0,28.53806,-81.37944,Sleigh,Active,SS-7041
1321-muskegon-Sleigh,muskegon,Woman repts. daughter encountered intensely bright red triangular obj. sitting on side of road.  Obj. rose disappeared suddenly.,us,11/02/2019,720,43.23417,-86.24833,Sleigh,Pending,SS-7042
13229-gb-circle,chippenham (uk/england),strange orange lights in the sky,gb,09/02/2005,7200,51.46000,-2.12472,circle,Pending,SS-8464
1322-seattle-Sleigh,seattle,Nat. Sleigh Rpt. Ctr. phones AP &amp; UPI wire services.  They have no info re 17NO95 sightings; express no desire to inspect data.,us,11/02/2019,0,47.60639,-122.33083,Sleigh,Closed,SS-7040
1323-mojave-Sleigh,mojave,Woman repts. 2 objs. big and small hovering in clear sky to SW.  Lights appear to blink or strobe.  Other witnesses.,us,11/02/2019,2100,35.05250,-118.17306,Sleigh,Active,SS-7039
1324-framingham-Sleigh,framingham,Young woman repts. seeing w/ friends a large round bright obj. overhead.  Filled car w/ green light.  Pains in head.,us,11/02/2019,50,42.27917,-71.41667,Sleigh,Pending,SS-7037
1325-phoenix-Sleigh,phoenix,Woman grandson and several other witnesses rept. approx. 10 shiny objs. maneuvering reflecting sunlight overhead.  Streaked off.,us,11/02/2019,300,33.44833,-112.07333,Sleigh,Active,SS-7038
1326-trenton-Sleigh,trenton,Young man hunting sees two peculiar bright lights hovering in sky like planets.  Suddenly they flashed changed color moved.,us,11/02/2019,180,41.06167,-91.63722,Sleigh,Active,SS-7035
13272-gb-Sleigh,leeds (uk/england),When I was 9 I saw a Sleigh in the sky in 1 place for a few hours,gb,09/02/2005,14400,53.80000,-1.58333,Sleigh,Active,SS-8467
13274-gb-oval,birmingham (uk/england),scary,gb,09/02/2005,3600,52.46667,-1.91667,oval,Closed,SS-8462
1327-carson city-Sleigh,carson city,Woman calls after dramatic sighting of a red streak of light w/ blue in middle moving SE to NW.  Width as thick as my thumb,us,11/02/2019,2,39.16389,-119.76639,Sleigh,Pending,SS-7036
1328-redding-Sleigh,redding,Woman in car facing E saw very bright bizarre obj. streak horizontally from L to R.  Head was blue tail was yellow orange red.,us,11/02/2019,3,40.58667,-122.39056,Sleigh,Closed,SS-7033
1329-placerville-Sleigh,placerville,MSleighN investigator relays rept. of multiple sightings of bizarre meteor.  Multiple newspaper articles.,us,11/02/2019,3,38.72972,-120.79750,Sleigh,Active,SS-7034
132-marquette-egg,marquette,I was on the second floor deck looked up for stars craft went right over me just above tree tops no lights covered mile to power c,us,11/01/2018,2,46.54361,-87.39528,egg,Pending,SS-8206
13308-gb-light,london (uk/england),Starlight object moving across sky coming to a complete stop then moving again until it disappear upwards (???),gb,09/02/2005,600,51.51412,-0.09369,light,Active,SS-8465
1330-redding-Sleigh,redding,Father w/ children witness orange ball of light bob above trees.  Suddenly witness streak of white light w/ green tail finger wide.,us,11/02/2019,600,40.58667,-122.39056,Sleigh,Pending,SS-7031
13317-gb-fireball,south shields (uk/england),Unnoticed fireball travelling towards ground then dissapears behind building never to be seen or mentioned,gb,09/02/2005,600,54.98778,-1.42139,fireball,Closed,SS-8463
1331-holton-Sleigh,holton,Youth w/ friend pursue on Hwy. 16 triangular thing in sky w/ yellow blue and green lights. Obj. turned abruptly flew north.,us,11/02/2019,900,39.46528,-95.73611,Sleigh,Active,SS-7032
1332-olathe-Sleigh,olathe,Family repts. a stationary obj. in night sky that is flashing red blue silver.  Appears to rotate.  (Not inconsistent w/ star.),us,11/02/2019,3600,38.88139,-94.81889,Sleigh,Active,SS-7029
1333-virginia beach-Sleigh,virginia beach,Mother heard high-pitch whine pass over house.  Daughter witnessed large circular craft w/ multiple circular whitish yellow lights.,us,11/02/2019,25,36.85278,-75.97833,Sleigh,Pending,SS-7030
1334-middleville-Sleigh,middleville,Woman sees bright fluorescent glowing green obj. streak across the sky in dir. of airport.  Size: 1 at arms length; round. BRIGHT.,us,11/02/2019,3,42.71306,-85.46194,Sleigh,Closed,SS-7027
1335-seattle-triangle,seattle,Man reports sighting in l972 or 1973.  Heard woman scream turned and saw large triangular ship in sky.,us,11/02/2019,30,47.60639,-122.33083,triangle,Active,SS-7028
1336-salem-sphere,salem,Woman repts. past sighting of perfectly round red globe floated across city.  2nd one appeared.  Witnessed by reporter too.,us,11/02/2019,0,44.94306,-123.03389,sphere,Active,SS-7025
1337-minneapolis-Sleigh,minneapolis,Man reports seeing 5x objects connected by a straight line sometime during l990.,us,11/02/2019,0,44.98000,-93.26361,Sleigh,Active,SS-7026
13388-gb-light,plymouth (uk/england),2 lights on 1 object very low very slow and making no noise at all.,gb,09/02/2005,20,50.39639,-4.13861,light,Pending,SS-8460
1338-reedborough-Sleigh,reedborough,Man reports witnessing Sleigh two years prior.  (No written report.),us,11/02/2019,0,44.55880,-72.57784,Sleigh,Closed,SS-7023
13399-gb-Sleigh,edinburgh (south of) (uk/scotland),8th july 23:20hrs.South of edinburgh.triangular with a front.minutes.witnessed a Sleigh at close quarters.,gb,09/02/2005,180,55.83333,-3.08333,Sleigh,Closed,SS-8461
1339-pacific grove-Sleigh,pacific grove,Rept. that local police had pursued a strange obj. and incident was hushed up. (Facts unclear),us,11/02/2019,0,36.61778,-121.91556,Sleigh,Pending,SS-7024
133-simi valley-light,simi valley,The object in the sky at first appeared to be an unknown type aircraft with its landing light on.  The light went out and no red or gr,us,11/01/2018,120,34.26944,-118.78056,light,Active,SS-8201
1340-shelton-Sleigh,shelton,CA woman visiting daughter witness discs and triangular ships over Squaxin Island in Puget Sound. Dramatic.,us,11/02/2019,0,47.21528,-123.09944,Sleigh,Active,SS-7021
1341-phoenix-Sleigh,phoenix,4 adults see 4 lights move erratically for 35 min.  Then 5 silent boomerang ships w/ glowing silver underbellies fly by in V sleigh,us,11/02/2019,2100,33.44833,-112.07333,Sleigh,Active,SS-7022
1342-clatonia-Sleigh,clatonia,Woman &amp; daughter rept.  4-5 objs. with red blue and white lights.  Close to ground in fog.  Moved very fast. (No written rept.),us,11/02/2019,600,40.46528,-96.84944,Sleigh,Pending,SS-7019
13435-gb-sphere,bradford (uk/england),Metallic baseball sized spere seen in Bradford Yorkshire England,gb,09/02/2005,5,51.00000,-3.18333,sphere,Pending,SS-8458
1343-belle fourche-Sleigh,belle fourche,MSleighN State Dir. relays rpt:  Postal empl. heading W on highway witnesses very large white w/ green tail streak vert. to horizon.,us,11/02/2019,2,44.67139,-103.85167,Sleigh,Closed,SS-7020
1344-tampa-Sleigh,tampa,Nursery owner repts. peculiar ring of flattened grass on his property.  Grass had been killed earlier w/ spray but was matted down.,us,11/02/2019,0,27.94722,-82.45861,Sleigh,Active,SS-7017
1345-sumter-Sleigh,sumter,Woman repts. her husband had just witnessed two bizarre ships a round one and a long torpedo-shaped obj. pass overhead.,us,11/02/2019,20,33.92028,-80.34167,Sleigh,Pending,SS-7018
13467-gb-circle,birmingham (uk/england),a green fizzing ball the size of the moon travelling low  and fast in the night sky ..,gb,09/02/2005,300,52.46667,-1.91667,circle,Active,SS-8459
1346-federal way-Sleigh,federal way,Woman friend  observe very large obj. in sky w/. bizarre lights.  Stationary at first then began to drift to W.  No sound.,us,11/02/2019,60,47.32250,-122.31139,Sleigh,Active,SS-7016
13470-gb-light,cheltenham (uk/england),Orange lights in sky.,gb,09/02/2005,1200,51.90000,-2.08333,light,Active,SS-8456
1347-bremerton-Sleigh,bremerton,Woman reports witnessing peculiar lights in W sky which suddenly disappeared from sight.  Lights looked round.,us,11/02/2019,2,47.56750,-122.63139,Sleigh,Active,SS-7015
134-san juan islands-Sleigh,san juan islands,The sleigh was roof high and I observed it very closely for at least 3 to 5 minutes,us,11/01/2018,15,48.55137,-123.07811,Sleigh,Pending,SS-8204
13554-gb-circle,st. austell (uk/england),recently when watching the shuttle flying towards the australin auora which was being filmed live from the shuttle i noticed an object,gb,09/02/2005,2,50.33833,-4.76583,circle,Active,SS-8457
13575-gb-changing,london (epping) (uk/england),i was with 3 other friends driving down a country lane in london epping the first site was as we were just driving down a rd leading o,gb,09/02/2005,240,51.51412,-0.09369,changing,Active,SS-8454
135-el dorado-Sleigh,el dorado,The sleigh was roof high and I observed it very closely for at least 3 to 5 minutes,us,11/01/2018,420,37.81722,-96.86194,Sleigh,Pending,SS-8199
13627-gb-other,colwyn bay (uk/wales north country),Aeroplane which turned into cigar light shape then a circle of red/green light in North Wales UK,gb,11/03/2005,18000,53.30000,-3.75000,other,Active,SS-8455
13640-gb-other,essex (uk/england),30 orange star like objects hovering above the M25,gb,11/03/2005,120,51.83333,0.58333,other,Pending,SS-8451
13646-gb-light,bristol (uk/england),it was changing colour  zig zag pattern rapid upward travel.,gb,11/03/2005,900,51.45000,-2.58333,light,Active,SS-8453
1365-au-Sleigh,adelaide (south australia),Aust. Hotline:  Callers rept. several soft white balls of light heading E then turn W then speed off to N.,au,11/02/2019,0,-34.92866,138.59863,Sleigh,Pending,SS-9014
1366-au-Sleigh,perth (western australia),Aust. Hotline:  Callers rept. a large bright cigar-shaped obj. travelling from N to S.  Length:  1 at arms length; 20+ miles dist.,au,11/02/2019,0,-31.95224,115.86140,Sleigh,Closed,SS-9011
13675-gb-sleigh,manchester (uk/england),triangle shap pattern over my town of swinton manchester england.,gb,11/03/2005,900,53.50000,-2.21667,sleigh,Active,SS-8449
1368-au-Sleigh,canberra (australia),Aust. Hotline:  A number of intense orange fireball lights travelling fast over Canberra.  Go E to W then turn to NW.,au,11/02/2019,0,-35.27603,149.13435,Sleigh,Active,SS-9012
1369-au-Sleigh,alice springs  (nt australia),Aust. Hotline:  Callers report 4x  intensely bright orange fireball lights heading W.  10x photos.  Police witness submit report.,au,11/02/2019,0,-23.69748,133.88362,Sleigh,Pending,SS-9009
136-north plains-oval,north plains,color silveroblong shapedistance about a mile awayit wobbled and that was how i saw it had no wingsmoving west to east,us,11/01/2018,180,45.59722,-122.99222,oval,Closed,SS-8202
13746-gb-Sleigh,london (uk/england),Strange sighting over heathrow airport uk,gb,11/03/2005,0,51.51412,-0.09369,Sleigh,Closed,SS-8452
13766-gb-oval,birmingham (uk/england),small oval object floating in the sky (not a balloon),gb,11/03/2005,60,52.46667,-1.91667,oval,Active,SS-8447
13780-gb-circle,leicester (uk/england),low flying below cloud level  large very clearsighting round covered in lights no noise moving about the same speed as a plane,gb,11/03/2005,10,52.66491,-1.03489,circle,Pending,SS-8450
13785-gb-oval,polegate (uk/england),Hovering object over house,gb,11/03/2005,240,50.80000,0.23333,oval,Pending,SS-8445
137-friendswoods-diamond,friendswoods,Video of 2 events: Very bright beam of light in sky going up and down.  Light was orange in color it pulsed and would fade in and out,us,11/01/2018,1200,29.52940,-95.20104,diamond,Closed,SS-8200
13829-gb-other,stranraer (uk/scotland),Two objects black in colour with thick red/yellow trails which dissapeared in less than a second.,gb,11/03/2005,1800,54.90000,-5.03333,other,Active,SS-8448
13865-gb-egg,bournemouth (uk/england),GLOWING EGG SHAPED CRAFT FLIES OVER RESIDENTIAL AREA. BOURNEMOUTH UK,gb,07/05/2005,90,50.71667,-1.88333,egg,Pending,SS-8443
